,City,Nation,Venue,Venue ID,Venue Latitude,Venue Longitude,Venue Category,Population,URL,Latitude,Longitude
0,Chongqing,China,Hongyadong (洪崖洞),4bc830fa15a7ef3b9ca87ada,29.564941572775037,106.5747419365107,Shopping Mall,30751600,https://en.wikipedia.org/wiki/Chongqing,29.558333333333,106.56666666667
1,Chongqing,China,Paulaner Brauhaus,504e9876e4b0225693e3ddcb,29.538571009014728,106.55779131991112,German Restaurant,30751600,https://en.wikipedia.org/wiki/Chongqing,29.558333333333,106.56666666667
2,Chongqing,China,The Cactus,4df77dac45dd222116c98b42,29.565164461302665,106.57534747545412,Mexican Restaurant,30751600,https://en.wikipedia.org/wiki/Chongqing,29.558333333333,106.56666666667
3,Chongqing,China,观音桥步行街,4d4f81433626a093174511bd,29.577044476164808,106.52865539348856,Plaza,30751600,https://en.wikipedia.org/wiki/Chongqing,29.558333333333,106.56666666667
4,Chongqing,China,Blue Frog (蓝蛙),565ab146498e3f29232c2f27,29.580209,106.528782,American Restaurant,30751600,https://en.wikipedia.org/wiki/Chongqing,29.558333333333,106.56666666667
5,Chongqing,China,Hyatt Regency Chongqing (重庆富力凯悦酒店),508aaf71e4b04009098fbc71,29.58303244366521,106.5322284846699,Hotel,30751600,https://en.wikipedia.org/wiki/Chongqing,29.558333333333,106.56666666667
6,Chongqing,China,TT酒吧,4e204ea918a88345f03ec31e,29.557010575552585,106.5714040828079,Nightclub,30751600,https://en.wikipedia.org/wiki/Chongqing,29.558333333333,106.56666666667
7,Chongqing,China,重庆Muse酒吧,4f01a98d93adc8245a5ec4d9,29.556986783587064,106.57156498335917,Nightclub,30751600,https://en.wikipedia.org/wiki/Chongqing,29.558333333333,106.56666666667
8,Chongqing,China,The Harp Irish Pub,4cd027332fd9b60c93927feb,29.565115630591066,106.57531007277498,Bar,30751600,https://en.wikipedia.org/wiki/Chongqing,29.558333333333,106.56666666667
9,Chongqing,China,KFC (肯德基),4d1c6df81cb9a143e295ae2b,29.71996111934223,106.63536071777344,Fast Food Restaurant,30751600,https://en.wikipedia.org/wiki/Chongqing,29.558333333333,106.56666666667
10,Chongqing,China,Paradise Walk (北城天街),4dc53134c65b89d3ca671225,29.580204410130907,106.52929405754765,Shopping Mall,30751600,https://en.wikipedia.org/wiki/Chongqing,29.558333333333,106.56666666667
11,Chongqing,China,Apple Paradise Walk Chongqing (Apple 重庆北城天街),53d05063498e9a40996dc5e2,29.5809963385395,106.52974605560301,Electronics Store,30751600,https://en.wikipedia.org/wiki/Chongqing,29.558333333333,106.56666666667
12,Chongqing,China,Apple MixC Chongqing (Apple 重庆万象城),5517cbbc498e697003e1c82d,29.518981877291825,106.51448965072632,Electronics Store,30751600,https://en.wikipedia.org/wiki/Chongqing,29.558333333333,106.56666666667
13,Chongqing,China,日月光中心广场,4b921c4af964a520afe733e3,29.556547663385697,106.56853079795837,Shopping Mall,30751600,https://en.wikipedia.org/wiki/Chongqing,29.558333333333,106.56666666667
14,Chongqing,China,Star Light 68 Plaza | 星光68广场,4cfe0529084f5481eb3b8e09,29.580975838628696,106.52782110549504,Shopping Mall,30751600,https://en.wikipedia.org/wiki/Chongqing,29.558333333333,106.56666666667
15,Chongqing,China,重庆新天地,4bc821a315a7ef3b7d9c7ada,29.55601628208022,106.50526205249683,Shopping Mall,30751600,https://en.wikipedia.org/wiki/Chongqing,29.558333333333,106.56666666667
16,Shanghai,China,The Bund (外滩),4b83cd99f964a520311131e3,31.23931586181669,121.48606538772583,Waterfront,24256800,https://en.wikipedia.org/wiki/Shanghai,31.228611111111,121.47472222222
17,Shanghai,China,Speak Low (彼楼),53ad6fd9498ef536312f3fc8,31.216871548241592,121.46127676004897,Speakeasy,24256800,https://en.wikipedia.org/wiki/Shanghai,31.228611111111,121.47472222222
18,Shanghai,China,Goodfellas,51bf3806498e121abf501559,31.234878303167246,121.48672985761824,Italian Restaurant,24256800,https://en.wikipedia.org/wiki/Shanghai,31.228611111111,121.47472222222
19,Shanghai,China,Green Massage,4bbb03d83db7b713b3d8239a,31.223859363202603,121.47287345947018,Massage Studio,24256800,https://en.wikipedia.org/wiki/Shanghai,31.228611111111,121.47472222222
20,Shanghai,China,The Nest,548c4f32498ea6aa0e8ada60,31.242822606328705,121.48311557043023,Lounge,24256800,https://en.wikipedia.org/wiki/Shanghai,31.228611111111,121.47472222222
21,Shanghai,China,Cinema Palace (百丽宫影城),51ffae18498e4832862a504c,31.217828560923955,121.4530803668136,Multiplex,24256800,https://en.wikipedia.org/wiki/Shanghai,31.228611111111,121.47472222222
22,Shanghai,China,Vue Bar,4e0361b16284217c7f127902,31.246909317874692,121.48831941781857,Hotel Bar,24256800,https://en.wikipedia.org/wiki/Shanghai,31.228611111111,121.47472222222
23,Shanghai,China,Mercato,50000d74e4b014305ff5153c,31.236374417637105,121.48650645387544,Italian Restaurant,24256800,https://en.wikipedia.org/wiki/Shanghai,31.228611111111,121.47472222222
24,Shanghai,China,Mr & Mrs Bund - Modern Eatery by Paul Pairet,4b18f941f964a520d8d623e3,31.240449900451456,121.4856198339283,French Restaurant,24256800,https://en.wikipedia.org/wiki/Shanghai,31.228611111111,121.47472222222
25,Shanghai,China,Senator Saloon,4fe45d5fe4b023504e597994,31.21488220560235,121.44252765619291,Whisky Bar,24256800,https://en.wikipedia.org/wiki/Shanghai,31.228611111111,121.47472222222
26,Shanghai,China,Le Royal Club Lounge,4c9fd5fe54c8a1cdefb39a4b,31.23640406009433,121.47136389687614,Lounge,24256800,https://en.wikipedia.org/wiki/Shanghai,31.228611111111,121.47472222222
27,Shanghai,China,Homeslice,58847a7c89151d20aac23a7e,31.225189143225247,121.46109282451019,Pizza Place,24256800,https://en.wikipedia.org/wiki/Shanghai,31.228611111111,121.47472222222
28,Shanghai,China,Hai Di Lao (海底捞火锅),54070584498e00b302e2bf6d,31.23790233926051,121.46945552648276,Hotpot Restaurant,24256800,https://en.wikipedia.org/wiki/Shanghai,31.228611111111,121.47472222222
29,Shanghai,China,The Union Trading Co.,53a5bede498e35d5abb9bd77,31.213539564808297,121.44968493563377,Cocktail Bar,24256800,https://en.wikipedia.org/wiki/Shanghai,31.228611111111,121.47472222222
30,Shanghai,China,Pudong Riverside Promenade,4b0588c0f964a520ddd722e3,31.237745841571595,121.4921631747552,Scenic Lookout,24256800,https://en.wikipedia.org/wiki/Shanghai,31.228611111111,121.47472222222
31,Shanghai,China,Ultraviolet by Paul Pairet,4fb23758e4b002c2286b5234,31.24039829876376,121.48527145385742,Restaurant,24256800,https://en.wikipedia.org/wiki/Shanghai,31.228611111111,121.47472222222
32,Shanghai,China,Hakkasan,5331a671498e4e83c3c33bf4,31.240435648293435,121.48553691298822,Chinese Restaurant,24256800,https://en.wikipedia.org/wiki/Shanghai,31.228611111111,121.47472222222
33,Shanghai,China,Rooster 2,55f2b53d498ef2e5e4789067,31.232447016679533,121.44827384224376,Sports Bar,24256800,https://en.wikipedia.org/wiki/Shanghai,31.228611111111,121.47472222222
34,Shanghai,China,CHAR Bar,4e57af31d22d61e8f33d2c6d,31.228208520310947,121.4955932865478,Hotel Bar,24256800,https://en.wikipedia.org/wiki/Shanghai,31.228611111111,121.47472222222
35,Shanghai,China,Xuhui Riverside Park (徐汇滨江公园),4dbe6bef1e72b351cae07414,31.185819895002822,121.46088587911764,Park,24256800,https://en.wikipedia.org/wiki/Shanghai,31.228611111111,121.47472222222
36,Shanghai,China,el Ocho,53b56561498e7e8bccf00ac7,31.230430444871235,121.4552890876144,Cocktail Bar,24256800,https://en.wikipedia.org/wiki/Shanghai,31.228611111111,121.47472222222
37,Shanghai,China,The Bull & Claw (公牛和爪子),59368d7d93bd63346ba25cc7,31.21223951907087,121.44920827645973,Steakhouse,24256800,https://en.wikipedia.org/wiki/Shanghai,31.228611111111,121.47472222222
38,Shanghai,China,Bar Centrale,57780770498e61cc07cb8349,31.230856926080268,121.43632124241537,Italian Restaurant,24256800,https://en.wikipedia.org/wiki/Shanghai,31.228611111111,121.47472222222
39,Shanghai,China,Liquid Laundry,533bca42498ebf535854d91d,31.21761137866482,121.45109201725336,Gastropub,24256800,https://en.wikipedia.org/wiki/Shanghai,31.228611111111,121.47472222222
40,Shanghai,China,Colca,5933ed2e46e1b6531c849f32,31.20696721992066,121.44246010204022,Peruvian Restaurant,24256800,https://en.wikipedia.org/wiki/Shanghai,31.228611111111,121.47472222222
41,Shanghai,China,Barbarian,595f3110e1f0aa626639f2e0,31.231893039586485,121.43809595432296,Bar,24256800,https://en.wikipedia.org/wiki/Shanghai,31.228611111111,121.47472222222
42,Shanghai,China,The Cannery,574c154e498e43b1dc810eac,31.220453521383558,121.42380748460529,Lounge,24256800,https://en.wikipedia.org/wiki/Shanghai,31.228611111111,121.47472222222
43,Shanghai,China,Bund Club,4dee0a6f45dd3aa41d725f12,31.247146873393394,121.48866016293903,Lounge,24256800,https://en.wikipedia.org/wiki/Shanghai,31.228611111111,121.47472222222
44,Shanghai,China,Xujiahui Park (徐家汇公园),4bdba40363c5c9b6b9232968,31.19885318203575,121.43806457519531,Park,24256800,https://en.wikipedia.org/wiki/Shanghai,31.228611111111,121.47472222222
45,Shanghai,China,el Willy,4b0e56cdf964a520ec5623e3,31.233042404915437,121.48965749098183,Spanish Restaurant,24256800,https://en.wikipedia.org/wiki/Shanghai,31.228611111111,121.47472222222
46,Shanghai,China,RAW Eatery and Wood Grill,56f3ec90498ea87d6d7ed6ef,31.230180325103706,121.43690433637506,Bistro,24256800,https://en.wikipedia.org/wiki/Shanghai,31.228611111111,121.47472222222
47,Shanghai,China,M on the Bund (米氏西餐庁),4b0588c1f964a52037d822e3,31.236473407450358,121.48630621468445,French Restaurant,24256800,https://en.wikipedia.org/wiki/Shanghai,31.228611111111,121.47472222222
48,Shanghai,China,Century Park (世纪公园),4b0a10c4f964a520742123e3,31.21738925749389,121.54749870300293,Park,24256800,https://en.wikipedia.org/wiki/Shanghai,31.228611111111,121.47472222222
49,Shanghai,China,Heyday,54afca7b498e6aa485f3a447,31.207633159883912,121.43261611373468,Jazz Club,24256800,https://en.wikipedia.org/wiki/Shanghai,31.228611111111,121.47472222222
50,Shanghai,China,Uptown Records n' Beer,55266f0b498ecf79e2820f83,31.21179619880227,121.43886119127274,Music Store,24256800,https://en.wikipedia.org/wiki/Shanghai,31.228611111111,121.47472222222
51,Shanghai,China,8½ Otto e Mezzo BOMBANA,4f33af92e4b044e00712e182,31.244344025671364,121.48375698650018,Italian Restaurant,24256800,https://en.wikipedia.org/wiki/Shanghai,31.228611111111,121.47472222222
52,Shanghai,China,Bar Rouge,4b0588bff964a5208fd722e3,31.240391067749076,121.48522391338072,Lounge,24256800,https://en.wikipedia.org/wiki/Shanghai,31.228611111111,121.47472222222
53,Shanghai,China,Long Bar,4c810bafe602b1f739c18e7a,31.235833243463592,121.48690891567877,Hotel Bar,24256800,https://en.wikipedia.org/wiki/Shanghai,31.228611111111,121.47472222222
54,Shanghai,China,Lost Heaven Lounge (花马天堂酒吧),4ed0e2a60e61efa33195e8d0,31.234360399778243,121.4864214622339,Lounge,24256800,https://en.wikipedia.org/wiki/Shanghai,31.228611111111,121.47472222222
55,Shanghai,China,Lost Heaven (花马天堂),4b0588c2f964a52083d822e3,31.211745982747626,121.43330752606317,Yunnan Restaurant,24256800,https://en.wikipedia.org/wiki/Shanghai,31.228611111111,121.47472222222
56,Shanghai,China,Maya Mexican Restaurant (玛雅),4b0fd6f5f964a5205a6523e3,31.22400849315833,121.45090609762256,Mexican Restaurant,24256800,https://en.wikipedia.org/wiki/Shanghai,31.228611111111,121.47472222222
57,Shanghai,China,West Bund Art Center,54279cd0498e2d89dfcd96c5,31.169364907601302,121.45734872896483,Art Gallery,24256800,https://en.wikipedia.org/wiki/Shanghai,31.228611111111,121.47472222222
58,Shanghai,China,Bar No.3,5406f276498ee2d256d24a18,31.206588175647305,121.43303614728586,Cocktail Bar,24256800,https://en.wikipedia.org/wiki/Shanghai,31.228611111111,121.47472222222
59,Shanghai,China,Bund Waterfront - 16 Pu.,5235623911d2cc03dc455fa0,31.23022194681119,121.49353163335934,Scenic Lookout,24256800,https://en.wikipedia.org/wiki/Shanghai,31.228611111111,121.47472222222
60,Shanghai,China,Flair,4ce10c0041ed224bc114e83c,31.23874957537522,121.49668410099349,Hotel Bar,24256800,https://en.wikipedia.org/wiki/Shanghai,31.228611111111,121.47472222222
61,Shanghai,China,Cobra Lily (镜花水月),580b68af38fa00cd463bc185,31.222938721680773,121.4700219948888,Gastropub,24256800,https://en.wikipedia.org/wiki/Shanghai,31.228611111111,121.47472222222
62,Shanghai,China,Hai Di Lao Hotpot (海底捞火锅),4c7bb080566db60c405f4b0e,31.23205450877295,121.45024229600631,Hotpot Restaurant,24256800,https://en.wikipedia.org/wiki/Shanghai,31.228611111111,121.47472222222
63,Shanghai,China,Park Hyatt 87th Floor,4edc883ab6344371f95fa077,31.236642179539977,121.50286653775339,Hotel Bar,24256800,https://en.wikipedia.org/wiki/Shanghai,31.228611111111,121.47472222222
64,Shanghai,China,M2F,57d10ee7498e96f99ba49d15,31.204123,121.424411,Coffee Shop,24256800,https://en.wikipedia.org/wiki/Shanghai,31.228611111111,121.47472222222
65,Shanghai,China,Big Movie,515d6599e4b078ad3977721a,31.227975266555266,121.43981187147497,Video Store,24256800,https://en.wikipedia.org/wiki/Shanghai,31.228611111111,121.47472222222
66,Shanghai,China,Bites & Bottle-o,55af8575498e108c6275f60e,31.218709394306828,121.46869556442593,Restaurant,24256800,https://en.wikipedia.org/wiki/Shanghai,31.228611111111,121.47472222222
67,Shanghai,China,Premiere Cinemas (百美汇影城),52901f11498ecde4457621a5,31.225880068812547,121.44429777054302,Movie Theater,24256800,https://en.wikipedia.org/wiki/Shanghai,31.228611111111,121.47472222222
68,Shanghai,China,Southern Cross (南十字星),4b69728af964a520a9a22be3,31.21554400615282,121.44692508054176,Cocktail Bar,24256800,https://en.wikipedia.org/wiki/Shanghai,31.228611111111,121.47472222222
69,Shanghai,China,Cha's Restaurant (查餐厅),4b0588bef964a52050d722e3,31.22063626268351,121.46160928415352,Hong Kong Restaurant,24256800,https://en.wikipedia.org/wiki/Shanghai,31.228611111111,121.47472222222
70,Shanghai,China,酒池星座 Constellation,4b586ab4f964a520cd5628e3,31.219493366306775,121.45066622230895,Cocktail Bar,24256800,https://en.wikipedia.org/wiki/Shanghai,31.228611111111,121.47472222222
71,Shanghai,China,Lost Heaven Yunnan Restaurant (花马天堂云南餐厅),4b8b4d8ff964a520869b32e3,31.23471124611373,121.4863109609542,Yunnan Restaurant,24256800,https://en.wikipedia.org/wiki/Shanghai,31.228611111111,121.47472222222
72,Shanghai,China,Shanty (山缇),4b6d752ef964a52090752ce3,31.215548185207503,121.42473759758322,Speakeasy,24256800,https://en.wikipedia.org/wiki/Shanghai,31.228611111111,121.47472222222
73,Shanghai,China,Kartel,4e3aae2d1f6e7952f3298d62,31.222846778718182,121.4497171586418,Wine Bar,24256800,https://en.wikipedia.org/wiki/Shanghai,31.228611111111,121.47472222222
74,Shanghai,China,Shanghai Symphony Hall (上海交响乐团音乐厅),541eb88b498e5af2959d458d,31.21343120071869,121.44724484144068,Concert Hall,24256800,https://en.wikipedia.org/wiki/Shanghai,31.228611111111,121.47472222222
75,Shanghai,China,福1088,4b68144bf964a52062662be3,31.223407174345933,121.43137667860766,Chinese Restaurant,24256800,https://en.wikipedia.org/wiki/Shanghai,31.228611111111,121.47472222222
76,Shanghai,China,Calix,5723277d498e0bb2ab9d4efc,31.222478561092675,121.47027362543047,American Restaurant,24256800,https://en.wikipedia.org/wiki/Shanghai,31.228611111111,121.47472222222
77,Shanghai,China,Stone Brewing Tap Room,5af101095a2c910039aee58f,31.220217015650768,121.42362358728194,Beer Bar,24256800,https://en.wikipedia.org/wiki/Shanghai,31.228611111111,121.47472222222
78,Shanghai,China,Ocean Grounds,5760e94c498edc9370be7f8d,31.226068764429744,121.47016525268555,Café,24256800,https://en.wikipedia.org/wiki/Shanghai,31.228611111111,121.47472222222
79,Shanghai,China,People's Square (人民广场),4baf0c23f964a520a2e83be3,31.234279223152587,121.47052043667763,Plaza,24256800,https://en.wikipedia.org/wiki/Shanghai,31.228611111111,121.47472222222
80,Shanghai,China,The Pearl (珍珠剧场),52723e88498ec4d2942af10f,31.254016815391413,121.4817652482111,Theater,24256800,https://en.wikipedia.org/wiki/Shanghai,31.228611111111,121.47472222222
81,Shanghai,China,Peninsula Lobby Lounge (半岛酒店大厅),4e7f31d5722edb7e4f1cd7a5,31.241202,121.489058,Café,24256800,https://en.wikipedia.org/wiki/Shanghai,31.228611111111,121.47472222222
82,Shanghai,China,Kangaroo Bar,4b62e7d1f964a5202f582ae3,31.2126918396339,121.45833624078601,Dive Bar,24256800,https://en.wikipedia.org/wiki/Shanghai,31.228611111111,121.47472222222
83,Shanghai,China,Sober Company,5858e93288cfcc44b15614ba,31.221236097281114,121.46530222934025,Cocktail Bar,24256800,https://en.wikipedia.org/wiki/Shanghai,31.228611111111,121.47472222222
84,Shanghai,China,POP,54fb1e92498e69b44a0e075c,31.236209134082785,121.48643221517317,American Restaurant,24256800,https://en.wikipedia.org/wiki/Shanghai,31.228611111111,121.47472222222
85,Shanghai,China,Captain Bar (船长酒吧),4b0d2233f964a520034423e3,31.237324747238123,121.48493258496755,Bar,24256800,https://en.wikipedia.org/wiki/Shanghai,31.228611111111,121.47472222222
86,Shanghai,China,The Long Bar,4f8ea40ae4b0036b6f3faef9,31.223957254634982,121.44357943402932,Hotel Bar,24256800,https://en.wikipedia.org/wiki/Shanghai,31.228611111111,121.47472222222
87,Shanghai,China,Din Tai Fung (鼎泰丰),4bc5412e6936952136ef8388,31.220995689347884,121.47087846126338,Dumpling Restaurant,24256800,https://en.wikipedia.org/wiki/Shanghai,31.228611111111,121.47472222222
88,Shanghai,China,Funkadeli,57f662e7498ef66f0584ab1b,31.219059943644517,121.44773230030454,Lounge,24256800,https://en.wikipedia.org/wiki/Shanghai,31.228611111111,121.47472222222
89,Shanghai,China,Island6 Arts Center,5028ce9ce4b0d14d9665ca03,31.25019200577485,121.44470824587893,Art Gallery,24256800,https://en.wikipedia.org/wiki/Shanghai,31.228611111111,121.47472222222
90,Shanghai,China,M1NT Restaurant & Grill,4f7efbfbe4b0b58904841412,31.236920302007974,121.47964100404839,Restaurant,24256800,https://en.wikipedia.org/wiki/Shanghai,31.228611111111,121.47472222222
91,Shanghai,China,Sir Elly's Terrace,522204bd498e8b1b9d2d1613,31.243454347497007,121.48522850534363,Roof Deck,24256800,https://en.wikipedia.org/wiki/Shanghai,31.228611111111,121.47472222222
92,Shanghai,China,Jean Georges,4b0588bef964a52032d722e3,31.236379747706433,121.48654261993012,French Restaurant,24256800,https://en.wikipedia.org/wiki/Shanghai,31.228611111111,121.47472222222
93,Shanghai,China,M1NT,4b0588c5f964a52074d922e3,31.236608735657683,121.47979820953913,Nightclub,24256800,https://en.wikipedia.org/wiki/Shanghai,31.228611111111,121.47472222222
94,Shanghai,China,The Habit Burger Grill,5a214eba42d8c2528edc7e71,31.21710252656857,121.47010892629625,Burger Joint,24256800,https://en.wikipedia.org/wiki/Shanghai,31.228611111111,121.47472222222
95,Shanghai,China,新都里無二 Shintori,4b0588c2f964a52061d822e3,31.221303150847525,121.4460362222833,Japanese Restaurant,24256800,https://en.wikipedia.org/wiki/Shanghai,31.228611111111,121.47472222222
96,Shanghai,China,Nanjing Road Pedestrian Street (南京路步行街),4c32e58ea0ced13a38cf156e,31.238273,121.476807,Pedestrian Plaza,24256800,https://en.wikipedia.org/wiki/Shanghai,31.228611111111,121.47472222222
97,Shanghai,China,Three on the Bund,4b0588c5f964a5204fd922e3,31.236265884888713,121.48648639829497,Shopping Mall,24256800,https://en.wikipedia.org/wiki/Shanghai,31.228611111111,121.47472222222
98,Shanghai,China,Yu Garden Café,4de6e62ad164402a0f1cc92f,31.229481629168674,121.48350119590759,Café,24256800,https://en.wikipedia.org/wiki/Shanghai,31.228611111111,121.47472222222
99,Shanghai,China,Pasha (帕夏土耳其餐厅),4ba9bd23f964a5204f363ae3,31.21932486430248,121.45909851249206,Turkish Restaurant,24256800,https://en.wikipedia.org/wiki/Shanghai,31.228611111111,121.47472222222
100,Shanghai,China,Salute,4e07290c18a8382643b26310,31.212438623524317,121.44002021737148,Wine Bar,24256800,https://en.wikipedia.org/wiki/Shanghai,31.228611111111,121.47472222222
101,Shanghai,China,alma by DN,57259ff6498ee93a2995de14,31.245747,121.467674,Spanish Restaurant,24256800,https://en.wikipedia.org/wiki/Shanghai,31.228611111111,121.47472222222
102,Shanghai,China,Coconut Paradise (椰香天堂),4c249c07a852c9287052e36c,31.22284651275044,121.44543398796591,Thai Restaurant,24256800,https://en.wikipedia.org/wiki/Shanghai,31.228611111111,121.47472222222
103,Shanghai,China,Urban Grill,57596a4f498e76eb71611f02,31.24385421421896,121.44231184164309,Mediterranean Restaurant,24256800,https://en.wikipedia.org/wiki/Shanghai,31.228611111111,121.47472222222
104,Shanghai,China,Bistro 321 Le Bec,535cf5dd498ee409558b42e4,31.204995611189318,121.42176019328646,French Restaurant,24256800,https://en.wikipedia.org/wiki/Shanghai,31.228611111111,121.47472222222
105,Shanghai,China,Yé Shanghai,4bcee6e8b6c49c74c6c79791,31.222897484175935,121.47090092170573,Chinese Restaurant,24256800,https://en.wikipedia.org/wiki/Shanghai,31.228611111111,121.47472222222
106,Shanghai,China,D.O.C Gastronomia Italiana,5194c49b498e8fb14f69850a,31.210362501022885,121.44656370893296,Italian Restaurant,24256800,https://en.wikipedia.org/wiki/Shanghai,31.228611111111,121.47472222222
107,Shanghai,China,SEVE Italian Restaurant,502f78cae4b08345ccd26b2f,31.218689987536553,121.43636616510281,Italian Restaurant,24256800,https://en.wikipedia.org/wiki/Shanghai,31.228611111111,121.47472222222
108,Shanghai,China,Garlic,5048976ce4b0c2267562b965,31.206054301594207,121.44294306355334,Turkish Restaurant,24256800,https://en.wikipedia.org/wiki/Shanghai,31.228611111111,121.47472222222
109,Shanghai,China,Fat Cow Burgers,534e7580498e7e2d7d2003d0,31.192951978135426,121.38152410851761,Burger Joint,24256800,https://en.wikipedia.org/wiki/Shanghai,31.228611111111,121.47472222222
110,Shanghai,China,九井日本料理,52b0570c11d240ed90d9fb46,31.195663414567104,121.53401468974182,Japanese Restaurant,24256800,https://en.wikipedia.org/wiki/Shanghai,31.228611111111,121.47472222222
111,Shanghai,China,Zotter Chocolate Theatre Shanghai,5100e04c582f51322df0cb9c,31.271720535025718,121.55519950194135,Dessert Shop,24256800,https://en.wikipedia.org/wiki/Shanghai,31.228611111111,121.47472222222
112,Delhi,India,Connaught Place | कनॉट प्लेस (Connaught Place),4b489b54f964a520595026e3,28.6327309443951,77.22001768275413,Plaza,11034555,https://en.wikipedia.org/wiki/Delhi,28.61,77.23
113,Delhi,India,Tamra,54dc85c7498ef8f9ab9b3c08,28.620543184230115,77.21817445898111,Restaurant,11034555,https://en.wikipedia.org/wiki/Delhi,28.61,77.23
114,Delhi,India,Hauz Khas Village,4dff63787d8bc001316c3a96,28.55431076151011,77.19513960172755,Market,11034555,https://en.wikipedia.org/wiki/Delhi,28.61,77.23
115,Delhi,India,The Lodhi Hotel,4bd78af3304fce7284b033ab,28.591668747194344,77.2381313007319,Hotel,11034555,https://en.wikipedia.org/wiki/Delhi,28.61,77.23
116,Delhi,India,Indian Accent,5a0557269deb7d67455194ac,28.592025841987475,77.23800557290183,Indian Restaurant,11034555,https://en.wikipedia.org/wiki/Delhi,28.61,77.23
117,Delhi,India,PCO,505893c3e4b0645ce10fe6ac,28.561635344367186,77.1555896199453,Speakeasy,11034555,https://en.wikipedia.org/wiki/Delhi,28.61,77.23
118,Delhi,India,The Big Chill Cafe,4b701cbaf964a5209b072de3,28.60068629868818,77.22763621585838,Italian Restaurant,11034555,https://en.wikipedia.org/wiki/Delhi,28.61,77.23
119,Delhi,India,PVR Director's Cut,4f48e087e4b0291e48c90c03,28.540773094778803,77.15449924272153,Movie Theater,11034555,https://en.wikipedia.org/wiki/Delhi,28.61,77.23
120,Delhi,India,Bukhara,4bab1b3ef964a52051953ae3,28.596914259545567,77.17335846829526,Indian Restaurant,11034555,https://en.wikipedia.org/wiki/Delhi,28.61,77.23
121,Delhi,India,Trident,4e833e284690ac9d4a31d6dc,28.501031692140103,77.08923585318402,Hotel,11034555,https://en.wikipedia.org/wiki/Delhi,28.61,77.23
122,Delhi,India,Varq | वर्क,4c65834faebea5939e8870d0,28.60454694756125,77.2237810008916,Indian Restaurant,11034555,https://en.wikipedia.org/wiki/Delhi,28.61,77.23
123,Delhi,India,Naturals Ice Cream,54783eab498e910f8bd1781d,28.634455305513185,77.22213885818994,Ice Cream Shop,11034555,https://en.wikipedia.org/wiki/Delhi,28.61,77.23
124,Delhi,India,Starbucks Coffee | स्टारबक्स कॉफी,526473e811d2eea390697e78,28.55320124632601,77.08430528640747,Coffee Shop,11034555,https://en.wikipedia.org/wiki/Delhi,28.61,77.23
125,Delhi,India,Pandey Paan,4f8c4443e4b0a95f9685c9f6,28.6222491879439,77.20107475185938,Smoke Shop,11034555,https://en.wikipedia.org/wiki/Delhi,28.61,77.23
126,Delhi,India,Delhi Golf Club,4bac65b7f964a52054f33ae3,28.599967912739192,77.2332883430093,Golf Course,11034555,https://en.wikipedia.org/wiki/Delhi,28.61,77.23
127,Delhi,India,Khan Market | खान मार्केट (Khan Market),4c19ef4f834e2d7fa5182b80,28.600342223094003,77.22692265405401,Market,11034555,https://en.wikipedia.org/wiki/Delhi,28.61,77.23
128,Delhi,India,Jamavar Kashmiri Restaurant @ The Leela,4e7a162688774859c565a07d,28.580142785889475,77.18926702333043,Indian Restaurant,11034555,https://en.wikipedia.org/wiki/Delhi,28.61,77.23
129,Delhi,India,DLF CyberHub,5257ea5111d20d6aea85a5b6,28.495341748490137,77.08874128087407,Plaza,11034555,https://en.wikipedia.org/wiki/Delhi,28.61,77.23
130,Delhi,India,HOTEL SARAVANA BHAVAN,4c91f42fae96a0932d79a746,28.62704114687105,77.21951363035465,South Indian Restaurant,11034555,https://en.wikipedia.org/wiki/Delhi,28.61,77.23
131,Delhi,India,Amour Bistro,528b98b611d285b84d9b26b1,28.60156938620385,77.1859231921711,Café,11034555,https://en.wikipedia.org/wiki/Delhi,28.61,77.23
132,Delhi,India,The Big Chill Cafe,4d17689a6c8b5481d51aeacc,28.528201144658645,77.21774809752226,Restaurant,11034555,https://en.wikipedia.org/wiki/Delhi,28.61,77.23
133,Delhi,India,Hard Rock Cafe New Delhi,4b8fda02f964a520896533e3,28.529498002879468,77.20867399228605,American Restaurant,11034555,https://en.wikipedia.org/wiki/Delhi,28.61,77.23
134,Delhi,India,Select Citywalk,4b68f120f964a5201b942be3,28.528677890971235,77.21913628745303,Shopping Mall,11034555,https://en.wikipedia.org/wiki/Delhi,28.61,77.23
135,Delhi,India,"Fitness First Platinum, Select City Walk",4d7b276ce04d6ea8c194e3d5,28.52861519410108,77.2183605563254,Gym / Fitness Center,11034555,https://en.wikipedia.org/wiki/Delhi,28.61,77.23
136,Delhi,India,Blue Tokai Coffee Roasters,563b3462cd109f4faa72ca7a,28.51721449076931,77.20002132264182,Coffee Shop,11034555,https://en.wikipedia.org/wiki/Delhi,28.61,77.23
137,Delhi,India,Library Bar,4dad79eca86e0d401b87d86d,28.580116202772658,77.18979479443512,Cocktail Bar,11034555,https://en.wikipedia.org/wiki/Delhi,28.61,77.23
138,Delhi,India,Gulati Restaurant,4c30890aac0ab71332021c1e,28.608010137218567,77.22998865890446,Indian Restaurant,11034555,https://en.wikipedia.org/wiki/Delhi,28.61,77.23
139,Delhi,India,DLF Promenade,4cd29e7c2b52a09338b41f39,28.542311335460592,77.15630114078522,Shopping Mall,11034555,https://en.wikipedia.org/wiki/Delhi,28.61,77.23
140,Delhi,India,The Big Chill Cafe,4b5bed2ef964a520971d29e3,28.552727889814417,77.24192322690806,Italian Restaurant,11034555,https://en.wikipedia.org/wiki/Delhi,28.61,77.23
141,Delhi,India,L'Opera,4dae81ef4df0f639f24d674a,28.599784379249712,77.2261441150033,Café,11034555,https://en.wikipedia.org/wiki/Delhi,28.61,77.23
142,Delhi,India,Sagar Ratna,4cb876d7f50e224bd2d6e6fb,28.635487253836967,77.22064969494076,Indian Restaurant,11034555,https://en.wikipedia.org/wiki/Delhi,28.61,77.23
143,Delhi,India,Indian Accent,4bb8809798c7ef3b5c223102,28.57042284894989,77.2567533800153,Indian Restaurant,11034555,https://en.wikipedia.org/wiki/Delhi,28.61,77.23
144,Delhi,India,DLF Mall Of India,4e3116ef45ddbe0f665c2651,28.56750322992173,77.32136218126337,Shopping Mall,11034555,https://en.wikipedia.org/wiki/Delhi,28.61,77.23
145,Delhi,India,Sevilla,4bbdfc7c8a4fb71386a23d9d,28.60114350202022,77.21617449259902,Mediterranean Restaurant,11034555,https://en.wikipedia.org/wiki/Delhi,28.61,77.23
146,Delhi,India,Karim's | करीम | کریم (Karim's),4b42e3c7f964a520b5da25e3,28.64949759295152,77.2336908547362,Indian Restaurant,11034555,https://en.wikipedia.org/wiki/Delhi,28.61,77.23
147,Delhi,India,Rajinder Da Dhaba,4bb0d105f964a520a45f3ce3,28.56526803045266,77.19913678473706,Indian Restaurant,11034555,https://en.wikipedia.org/wiki/Delhi,28.61,77.23
148,Delhi,India,Olive Bar & Kitchen,4bfdff7fe9309521d32962ab,28.526103185630244,77.1839758878834,Italian Restaurant,11034555,https://en.wikipedia.org/wiki/Delhi,28.61,77.23
149,Delhi,India,SODABOTTLEOPENERWALA,5447b8b6498e04004ec5be5d,28.600140869804918,77.22627303643019,Irani Cafe,11034555,https://en.wikipedia.org/wiki/Delhi,28.61,77.23
150,Delhi,India,DLF Emporio,4c2f5dc1a0ced13ac55a106e,28.54321514883739,77.15685500566174,Shopping Mall,11034555,https://en.wikipedia.org/wiki/Delhi,28.61,77.23
151,Delhi,India,Shalom,4b5eef8af964a520929e29e3,28.556492280624543,77.23347659326305,Lounge,11034555,https://en.wikipedia.org/wiki/Delhi,28.61,77.23
152,Delhi,India,PVR IMAX,56ffbc14498edcff2c006fb4,28.57425117273549,77.35362680402375,Movie Theater,11034555,https://en.wikipedia.org/wiki/Delhi,28.61,77.23
153,Delhi,India,Big Yellow Door,513a1684e4b0581da224735e,28.693244735370346,77.20494771461874,Café,11034555,https://en.wikipedia.org/wiki/Delhi,28.61,77.23
154,Delhi,India,DLF Chhatarpur Farms,4ea4d72fd3e32e6868fe2a11,28.490960800391036,77.17629766076672,Farm,11034555,https://en.wikipedia.org/wiki/Delhi,28.61,77.23
155,Delhi,India,HOTEL SARAVANA BHAVAN,519ba450498eb0c559152d94,28.632319466435003,77.21644531748599,South Indian Restaurant,11034555,https://en.wikipedia.org/wiki/Delhi,28.61,77.23
156,Delhi,India,Diggin,530af53a498e95adf56d82ce,28.55566501565905,77.21859020657992,Café,11034555,https://en.wikipedia.org/wiki/Delhi,28.61,77.23
157,Delhi,India,Ambience Mall,4c6d35ba6af58cfab8bf8817,28.54101219128812,77.15512759069266,Shopping Mall,11034555,https://en.wikipedia.org/wiki/Delhi,28.61,77.23
158,Delhi,India,Lantern's,4e343b8345dd6987a1822a3a,28.64318296013676,77.17774563974753,Bar,11034555,https://en.wikipedia.org/wiki/Delhi,28.61,77.23
159,Delhi,India,Big Chill,5183e5a3498e4de3257abb0b,28.54275823739289,77.15644619500411,Italian Restaurant,11034555,https://en.wikipedia.org/wiki/Delhi,28.61,77.23
160,Delhi,India,Naturals Ice Cream,57f7d510498edf8f07dae374,28.550985981616485,77.20431471497969,Dessert Shop,11034555,https://en.wikipedia.org/wiki/Delhi,28.61,77.23
161,Delhi,India,Holiday Inn New Delhi International Airport,523fdf7893cd473e6e989d59,28.550211821866366,77.12302730505324,Hotel,11034555,https://en.wikipedia.org/wiki/Delhi,28.61,77.23
162,Delhi,India,DLF Place Saket,4b6e639ff964a52059bb2ce3,28.528032113530283,77.2168961085727,Shopping Mall,11034555,https://en.wikipedia.org/wiki/Delhi,28.61,77.23
163,Delhi,India,The Spice Route,4b594de5f964a5208f8428e3,28.625577291994166,77.21806493444225,Asian Restaurant,11034555,https://en.wikipedia.org/wiki/Delhi,28.61,77.23
164,Delhi,India,Ambience Mall,4b67c5a6f964a5204f5d2be3,28.50349715678312,77.09728717803955,Shopping Mall,11034555,https://en.wikipedia.org/wiki/Delhi,28.61,77.23
165,Delhi,India,Smoke House Deli,4bfe55e283bbd13ad82a63c5,28.542865736349107,77.15621307309048,Deli / Bodega,11034555,https://en.wikipedia.org/wiki/Delhi,28.61,77.23
166,Delhi,India,Thai High,4b5c0453f964a520562129e3,28.522127097129164,77.1818314461584,Thai Restaurant,11034555,https://en.wikipedia.org/wiki/Delhi,28.61,77.23
167,Delhi,India,Gung The Palace,4bd5d0abcfa7b713227726da,28.556827471063702,77.20529819359226,Korean Restaurant,11034555,https://en.wikipedia.org/wiki/Delhi,28.61,77.23
168,Delhi,India,Purana Quila,4d57ddae8147f04d3c8c9b54,28.61274224468718,77.24032724992529,History Museum,11034555,https://en.wikipedia.org/wiki/Delhi,28.61,77.23
169,Delhi,India,Khan Chacha,4f5c8cf6e4b086681c1463df,28.528170383513412,77.21920724473348,Indian Restaurant,11034555,https://en.wikipedia.org/wiki/Delhi,28.61,77.23
170,Delhi,India,Zara | जा़रा,4d874b038de9721ef4576a51,28.64246808621033,77.10653617124635,Clothing Store,11034555,https://en.wikipedia.org/wiki/Delhi,28.61,77.23
171,Delhi,India,Imperfecto,514c7cb8e4b0cbb5e93263f7,28.554657460762375,77.19509179298782,Mediterranean Restaurant,11034555,https://en.wikipedia.org/wiki/Delhi,28.61,77.23
172,Delhi,India,Élan @ The Lodhi,5125f155e4b06bb31c4b1c0b,28.591598725492826,77.23820746338278,Restaurant,11034555,https://en.wikipedia.org/wiki/Delhi,28.61,77.23
173,Delhi,India,Monkey Bar (Monkey Bar New Delhi),52a1ef0b11d21e1ef8b5207d,28.53657802581153,77.14766875358471,Gastropub,11034555,https://en.wikipedia.org/wiki/Delhi,28.61,77.23
174,Delhi,India,BTW,4cd9196615d8b60c323e690e,28.54124571153739,77.29693397077152,Indian Restaurant,11034555,https://en.wikipedia.org/wiki/Delhi,28.61,77.23
175,Delhi,India,Yeti - The Himalayan Kitchen,4db3ffcfcda1c57c825264f6,28.553656456296924,77.19426148633241,Tibetan Restaurant,11034555,https://en.wikipedia.org/wiki/Delhi,28.61,77.23
176,Delhi,India,Hawkers,4ed0f96e6c2510ace194f2f7,28.523172143706116,77.15736168796424,Chinese Restaurant,11034555,https://en.wikipedia.org/wiki/Delhi,28.61,77.23
177,Delhi,India,Cafe Wink,4ecbad0ab8f7782ab80955ea,28.657310666176073,77.31709809883382,Italian Restaurant,11034555,https://en.wikipedia.org/wiki/Delhi,28.61,77.23
178,Delhi,India,Zara,51bc11d1498e1315efdf9b6c,28.505686453128902,77.09575502503064,Clothing Store,11034555,https://en.wikipedia.org/wiki/Delhi,28.61,77.23
179,Delhi,India,Perch,558ff09f498e6019fb981c82,28.599987403620787,77.22634986618046,Café,11034555,https://en.wikipedia.org/wiki/Delhi,28.61,77.23
180,Delhi,India,Blue Bar,4b80f422f964a520269330e3,28.59540260693495,77.17052851368256,Bar,11034555,https://en.wikipedia.org/wiki/Delhi,28.61,77.23
181,Delhi,India,Fio - Cookhouse & Bar,51c5b96b498e739497b91916,28.551051353012067,77.25127933672889,Restaurant,11034555,https://en.wikipedia.org/wiki/Delhi,28.61,77.23
182,Delhi,India,Mamagoto,4d2884f4342d6dcb862ef9ca,28.528756186181624,77.2194502821349,Thai Restaurant,11034555,https://en.wikipedia.org/wiki/Delhi,28.61,77.23
183,Delhi,India,Bengali Market | बंगाली मार्केट | বাংলা বাজার,4ba05f35f964a520d16a37e3,28.62949840530067,77.23202048881043,Indian Restaurant,11034555,https://en.wikipedia.org/wiki/Delhi,28.61,77.23
184,Delhi,India,Chili's,4f4a61dfe4b08334fc1e4ac0,28.50210107517323,77.0976207918191,American Restaurant,11034555,https://en.wikipedia.org/wiki/Delhi,28.61,77.23
185,Delhi,India,Smoke House Deli,50d6c970e4b04490b9a5c287,28.599850091754014,77.22689969233812,French Restaurant,11034555,https://en.wikipedia.org/wiki/Delhi,28.61,77.23
186,Delhi,India,Mahabelly,55262376498e3c991196b070,28.527303103925483,77.2167995021076,Restaurant,11034555,https://en.wikipedia.org/wiki/Delhi,28.61,77.23
187,Delhi,India,Cafe Delhi Heights,4f7e9d8de4b049fd334d43f6,28.50439153662343,77.0969667233774,American Restaurant,11034555,https://en.wikipedia.org/wiki/Delhi,28.61,77.23
188,Delhi,India,Tonino,4d7115aa419da35d99400fd8,28.50378035000131,77.17079404866041,Italian Restaurant,11034555,https://en.wikipedia.org/wiki/Delhi,28.61,77.23
189,Delhi,India,Rajdhani Thali,4cbb2592dd41a35df95eeca0,28.62999946326596,77.2204011327264,Indian Restaurant,11034555,https://en.wikipedia.org/wiki/Delhi,28.61,77.23
190,Delhi,India,Jolly Creations Designer Boutique,4fe1cd59e4b00017d7fcbd78,28.662689090022976,77.2262995390695,Boutique,11034555,https://en.wikipedia.org/wiki/Delhi,28.61,77.23
191,Delhi,India,Pind Balluchi,4c359b0f7cc0c9b6ca33f59a,28.630318339248806,77.21760032761195,North Indian Restaurant,11034555,https://en.wikipedia.org/wiki/Delhi,28.61,77.23
192,Delhi,India,Naivedyam,4e1c6ba418a81211e991ad22,28.55498712481466,77.19510433587007,South Indian Restaurant,11034555,https://en.wikipedia.org/wiki/Delhi,28.61,77.23
193,Delhi,India,Dum Pukht,4b72d4a3f964a520be8a2de3,28.597194019454648,77.17328824799445,Indian Restaurant,11034555,https://en.wikipedia.org/wiki/Delhi,28.61,77.23
194,Delhi,India,au bon pain,537640b811d22e39cbac9c39,28.494842329983253,77.0884207850353,Café,11034555,https://en.wikipedia.org/wiki/Delhi,28.61,77.23
195,Delhi,India,Rico's,51fd2459498e1d0d6b443250,28.694766392301215,77.20414858461864,Fast Food Restaurant,11034555,https://en.wikipedia.org/wiki/Delhi,28.61,77.23
196,Delhi,India,Lázeez Affaire,4c0e0c5798102d7f3a05e306,28.602236717164363,77.18604379463075,Indian Restaurant,11034555,https://en.wikipedia.org/wiki/Delhi,28.61,77.23
197,Delhi,India,Pita Pit,5280d9c011d24a5f513d3517,28.495091548084687,77.08853413795057,Falafel Restaurant,11034555,https://en.wikipedia.org/wiki/Delhi,28.61,77.23
198,Delhi,India,CR Park Market No. 1,4c8ba0d9e51e6dcb8bf873de,28.540074694941968,77.24884746958486,Market,11034555,https://en.wikipedia.org/wiki/Delhi,28.61,77.23
199,Delhi,India,Nehru Park | नेहरू पार्क (Nehru Park),4ce89bd9e888f04dbda7436b,28.591798206029363,77.19285983211086,Park,11034555,https://en.wikipedia.org/wiki/Delhi,28.61,77.23
200,Delhi,India,Keya,4c49cc6c1b430f4755ef08c4,28.542841885822984,77.15688409553573,Lounge,11034555,https://en.wikipedia.org/wiki/Delhi,28.61,77.23
201,Delhi,India,Social Offline,53b7d275498e9ba407e30734,28.55446102606905,77.19388067748017,Lounge,11034555,https://en.wikipedia.org/wiki/Delhi,28.61,77.23
202,Delhi,India,Guppy by ai,52139e5711d25fdaf81ae3a0,28.58460985818943,77.22370812439075,Japanese Restaurant,11034555,https://en.wikipedia.org/wiki/Delhi,28.61,77.23
203,Delhi,India,Khan Chacha | खान चाचा | خان چاچا,4f0f00a7e4b07eb2379b1e1d,28.634202294199614,77.22077980678422,Indian Restaurant,11034555,https://en.wikipedia.org/wiki/Delhi,28.61,77.23
204,Delhi,India,Haldiram's,4cccfe312dc437041ba4cb08,28.565236377008425,77.23816910709549,Indian Restaurant,11034555,https://en.wikipedia.org/wiki/Delhi,28.61,77.23
205,Delhi,India,Sakleys- The Mountain Café,53022083498e5a196d06dc8f,28.54983930523705,77.23580187868463,Café,11034555,https://en.wikipedia.org/wiki/Delhi,28.61,77.23
206,Delhi,India,Epicuria,51c41590498edcb7db822ca5,28.550926002518175,77.25154709438864,Food Court,11034555,https://en.wikipedia.org/wiki/Delhi,28.61,77.23
207,Delhi,India,Three Sixty One,4db3dfb4f7b121c29f4091bf,28.501974770492165,77.08818331998025,Restaurant,11034555,https://en.wikipedia.org/wiki/Delhi,28.61,77.23
208,Delhi,India,Farzi Cafe,568feb91498edb833d755933,28.632580798842707,77.22112484247755,Molecular Gastronomy Restaurant,11034555,https://en.wikipedia.org/wiki/Delhi,28.61,77.23
209,Delhi,India,Cyber Hub Social,57d1ad12498eccf67d9d2a36,28.49427375788016,77.08829652280507,Bar,11034555,https://en.wikipedia.org/wiki/Delhi,28.61,77.23
210,Delhi,India,Yellow Brick Road,4ba1ff66f964a52090d537e3,28.601884437159832,77.22929799913159,Restaurant,11034555,https://en.wikipedia.org/wiki/Delhi,28.61,77.23
211,Delhi,India,Moti Mahal,4be8453488ed2d7fb1a9cb1d,28.646522533312474,77.24014482739257,Indian Restaurant,11034555,https://en.wikipedia.org/wiki/Delhi,28.61,77.23
212,Beijing,China,The Opposite House (瑜舍),4b290c37f964a520c69724e3,39.93623854878213,116.44864160393983,Hotel,21516000,https://en.wikipedia.org/wiki/Beijing,39.916666666667,116.38333333333
213,Beijing,China,Great Leap Brewing (Great Leap Brewing 大跃啤酒),52187f3611d247f3b9c15d52,39.93593690654814,116.39308082174908,Brewery,21516000,https://en.wikipedia.org/wiki/Beijing,39.916666666667,116.38333333333
214,Beijing,China,Shichahai Park (什刹海公园 Shichahai Park),4ba82086f964a520ffcd39e3,39.93244621864724,116.3857913017273,Park,21516000,https://en.wikipedia.org/wiki/Beijing,39.916666666667,116.38333333333
215,Beijing,China,Mao Mao Chong (毛毛虫),4b928f56f964a520770434e3,39.93354793580871,116.40099496823991,Pub,21516000,https://en.wikipedia.org/wiki/Beijing,39.916666666667,116.38333333333
216,Beijing,China,Zarah Café,536324f3498e91ce7e36d37d,39.93938938524772,116.39995713841657,Café,21516000,https://en.wikipedia.org/wiki/Beijing,39.916666666667,116.38333333333
217,Beijing,China,Temple Restaurant Beijing,4ed5f0ab4901f03684314963,39.9265275764491,116.39720388581632,French Restaurant,21516000,https://en.wikipedia.org/wiki/Beijing,39.916666666667,116.38333333333
218,Beijing,China,National Centre for the Performing Arts (国家大剧院),4bee251d946c0f47ed91a363,39.903935870562655,116.38354141408601,Performing Arts Venue,21516000,https://en.wikipedia.org/wiki/Beijing,39.916666666667,116.38333333333
219,Beijing,China,Mercante,4f27ea43e4b03421b84d78c2,39.93675771748234,116.39337260032991,Italian Restaurant,21516000,https://en.wikipedia.org/wiki/Beijing,39.916666666667,116.38333333333
220,Beijing,China,Bodhi Therapeutic Retreat (菩提),4b6d1d5ef964a52073672ce3,39.933876,116.441188,Massage Studio,21516000,https://en.wikipedia.org/wiki/Beijing,39.916666666667,116.38333333333
221,Beijing,China,Modernista,4ebf86ae8231b62f42419c78,39.94317389132807,116.39345317391444,Bar,21516000,https://en.wikipedia.org/wiki/Beijing,39.916666666667,116.38333333333
222,Beijing,China,海底捞火锅 Haidilao Hot Pot,4ba5f1c2f964a5209d2a39e3,39.84699232186983,116.3647607507509,Hotpot Restaurant,21516000,https://en.wikipedia.org/wiki/Beijing,39.916666666667,116.38333333333
223,Beijing,China,Arrow Factory Brewing (Arrow Factory Brewing 箭厂啤酒 (亮马河店)),569dd79e498e1966747964d1,39.94389709231369,116.44314765930174,Brewery,21516000,https://en.wikipedia.org/wiki/Beijing,39.916666666667,116.38333333333
224,Beijing,China,RAMO,541e5705498eebd477cd8ca1,39.94268827890651,116.40412190795806,Pizza Place,21516000,https://en.wikipedia.org/wiki/Beijing,39.916666666667,116.38333333333
225,Beijing,China,Jing-A (京A) Brewpub Xingfucun (京A Brewpub),59c65d562a7ab65a823e6188,39.936756,116.444994,Brewery,21516000,https://en.wikipedia.org/wiki/Beijing,39.916666666667,116.38333333333
226,Beijing,China,Nali Patio (那里花园),4ba497f0f964a5203da638e3,39.93482015860043,116.44854815714633,Shopping Mall,21516000,https://en.wikipedia.org/wiki/Beijing,39.916666666667,116.38333333333
227,Beijing,China,Olympic Forest Park North Park (奥林匹克森林公园北园),538336d8498e54e075d321e1,40.02914560657223,116.39989373657511,Park,21516000,https://en.wikipedia.org/wiki/Beijing,39.916666666667,116.38333333333
228,Beijing,China,Dali Courtyard (大里院子),4b11056ef964a520867723e3,39.939983286011554,116.39881331482209,Yunnan Restaurant,21516000,https://en.wikipedia.org/wiki/Beijing,39.916666666667,116.38333333333
229,Beijing,China,金面王朝剧院 Golden Mask Dynasty,5337e3b911d2a2ad529b31ba,39.865427221338756,116.49256087218572,Theater,21516000,https://en.wikipedia.org/wiki/Beijing,39.916666666667,116.38333333333
230,Beijing,China,Dusk Dawn Club (DDC),53be3e30498e5599b27edaf4,39.93067357849994,116.404337700115,Bar,21516000,https://en.wikipedia.org/wiki/Beijing,39.916666666667,116.38333333333
231,Beijing,China,365 Inn,4d154a1925cda143d39768d6,39.893487299063935,116.38618328894457,Hostel,21516000,https://en.wikipedia.org/wiki/Beijing,39.916666666667,116.38333333333
232,Beijing,China,Houhai Lake (后海),4badbfbff964a520da663be3,39.93722369992521,116.38734560225828,Lake,21516000,https://en.wikipedia.org/wiki/Beijing,39.916666666667,116.38333333333
233,Beijing,China,Red 1 Karting Beijing,5466ecd6498ee896a4835752,40.02937349642853,116.47187267132398,Go Kart Track,21516000,https://en.wikipedia.org/wiki/Beijing,39.916666666667,116.38333333333
234,Beijing,China,吐鲁番餐厅,4e7c6feddab4519ab66de1cf,39.8877560183017,116.35668433151446,Xinjiang Restaurant,21516000,https://en.wikipedia.org/wiki/Beijing,39.916666666667,116.38333333333
235,Beijing,China,Hua's Restaurant (花家怡园),4bab4934f964a520e19d3ae3,39.94002052854349,116.41278479962595,Chinese Restaurant,21516000,https://en.wikipedia.org/wiki/Beijing,39.916666666667,116.38333333333
236,Beijing,China,Taikoo Li Sanlitun (三里屯太古里),4b66bef1f964a52073292be3,39.9332539813485,116.44858133999325,Shopping Mall,21516000,https://en.wikipedia.org/wiki/Beijing,39.916666666667,116.38333333333
237,Beijing,China,Mai Bar 麦酒吧,4ed8d49d61af8a14b45991ab,39.94415326224318,116.39666735297382,Cocktail Bar,21516000,https://en.wikipedia.org/wiki/Beijing,39.916666666667,116.38333333333
238,Beijing,China,Slow Boat Brewpub (悠航鲜啤),57c86ec5498e61091db5a4c3,39.92958207951827,116.44915346250912,Brewery,21516000,https://en.wikipedia.org/wiki/Beijing,39.916666666667,116.38333333333
239,Beijing,China,Mokihi,4d6a5db7fd7ea35d580ab14a,39.948443750468506,116.46597136437879,Cocktail Bar,21516000,https://en.wikipedia.org/wiki/Beijing,39.916666666667,116.38333333333
240,Beijing,China,Beersmith Gastropub,58f0ad2867af3a38a4efd55a,39.91149285084902,116.45353478868361,Gastropub,21516000,https://en.wikipedia.org/wiki/Beijing,39.916666666667,116.38333333333
241,Beijing,China,Sanlitun Village North (三里屯北区),4e5601637d8b60849c499cc2,39.9371282871573,116.44821420535987,Shop & Service,21516000,https://en.wikipedia.org/wiki/Beijing,39.916666666667,116.38333333333
242,Beijing,China,Great Leap Brewing (大跃啤酒),54ca211e498ecc6670d7625f,39.94860605934344,116.44884269262141,Brewery,21516000,https://en.wikipedia.org/wiki/Beijing,39.916666666667,116.38333333333
243,Beijing,China,The Black Moth,57dbe0ae498e5359fc78ffe0,39.93476195512906,116.44912246237354,Cocktail Bar,21516000,https://en.wikipedia.org/wiki/Beijing,39.916666666667,116.38333333333
244,Beijing,China,聚宝源 Jubaoyuan Hotpot,4bdd1d5ff219c9b6b7071210,39.88540141962323,116.35737139176273,Hotpot Restaurant,21516000,https://en.wikipedia.org/wiki/Beijing,39.916666666667,116.38333333333
245,Beijing,China,22 International Art Plaza,4cfb47e2084f5481367f8009,39.898529540392744,116.46450290400088,Art Gallery,21516000,https://en.wikipedia.org/wiki/Beijing,39.916666666667,116.38333333333
246,Beijing,China,Hotel Éclat Beijing,51823161498eb8bf4167aff2,39.91808758208729,116.44284730473504,Hotel,21516000,https://en.wikipedia.org/wiki/Beijing,39.916666666667,116.38333333333
247,Beijing,China,Sir Teen,5561d3d6498e4406b9a54614,39.92830466923337,116.43842373132985,Nightclub,21516000,https://en.wikipedia.org/wiki/Beijing,39.916666666667,116.38333333333
248,Beijing,China,Western Mahua 西部马华,4e048927d22d4cebf373522a,39.927200925225804,116.45224342405182,Fast Food Restaurant,21516000,https://en.wikipedia.org/wiki/Beijing,39.916666666667,116.38333333333
249,Beijing,China,Mosto,4b28e2ebf964a520eb9524e3,39.93488586757074,116.44851191154576,South American Restaurant,21516000,https://en.wikipedia.org/wiki/Beijing,39.916666666667,116.38333333333
250,Beijing,China,D.Lounge,4b07de58f964a5209f0023e3,39.93036461195083,116.4499931763745,Lounge,21516000,https://en.wikipedia.org/wiki/Beijing,39.916666666667,116.38333333333
251,Beijing,China,The Georg by Georg Jensen,5683bb91498e71f913758d49,39.93343954672357,116.3927397101468,Scandinavian Restaurant,21516000,https://en.wikipedia.org/wiki/Beijing,39.916666666667,116.38333333333
252,Beijing,China,海底捞火锅 Haidilao Hot Pot,4ba8a979f964a52063e539e3,39.914400318774334,116.47646313701763,Hotpot Restaurant,21516000,https://en.wikipedia.org/wiki/Beijing,39.916666666667,116.38333333333
253,Beijing,China,Weiming Lake (未名湖),4bfbdd0dd931c928e254838b,39.99304206817004,116.30396474958552,Lake,21516000,https://en.wikipedia.org/wiki/Beijing,39.916666666667,116.38333333333
254,Beijing,China,MEI,55a74dc3498ee1734e6f9ae7,39.91843817329836,116.45449779437018,Bar,21516000,https://en.wikipedia.org/wiki/Beijing,39.916666666667,116.38333333333
255,Beijing,China,台北纯K,5229bff911d29f4d5f917e98,39.92792878279202,116.43759445464492,Karaoke Bar,21516000,https://en.wikipedia.org/wiki/Beijing,39.916666666667,116.38333333333
256,Beijing,China,Song Lin Massage 松霖保健,4de24adae4cd056f743fba4c,39.9440683729441,116.46473070376098,Massage Studio,21516000,https://en.wikipedia.org/wiki/Beijing,39.916666666667,116.38333333333
257,Beijing,China,馅老满,54151ea3498eb7150f8d0c84,39.94346785587687,116.38765215280189,Dumpling Restaurant,21516000,https://en.wikipedia.org/wiki/Beijing,39.916666666667,116.38333333333
258,Beijing,China,La Social,57516ef4498e34c6a5e085f0,39.93509744658471,116.4486677791995,Arepa Restaurant,21516000,https://en.wikipedia.org/wiki/Beijing,39.916666666667,116.38333333333
259,Beijing,China,Agua,4cd3d314607a6dcb1e8e1154,39.93486391061948,116.44859435442214,Spanish Restaurant,21516000,https://en.wikipedia.org/wiki/Beijing,39.916666666667,116.38333333333
260,Beijing,China,Club Lounge,4e1eaaf8c65bd9e1fddff678,39.89673096008949,116.45514824704941,Hotel Bar,21516000,https://en.wikipedia.org/wiki/Beijing,39.916666666667,116.38333333333
261,Beijing,China,Janes & Hooch,50ba4f27e4b063c748f7bfb6,39.930682717362515,116.45097857550822,Cocktail Bar,21516000,https://en.wikipedia.org/wiki/Beijing,39.916666666667,116.38333333333
262,Beijing,China,Sheraton Beijing Dongcheng Executive Lounge,4eba18a88231d54a3d72edee,39.96706232747886,116.40240097828794,Lounge,21516000,https://en.wikipedia.org/wiki/Beijing,39.916666666667,116.38333333333
263,Beijing,China,Qmex,4fd022a1e4b073e13d036c40,39.930657783297846,116.45045889881246,Mexican Restaurant,21516000,https://en.wikipedia.org/wiki/Beijing,39.916666666667,116.38333333333
264,Beijing,China,Wangfujing Shopping Street (Wangfujing Shopping Street 王府井步行街),4ca9b2c7d971b1f75d9d20e1,39.91216854133877,116.40499464869005,Shopping Plaza,21516000,https://en.wikipedia.org/wiki/Beijing,39.916666666667,116.38333333333
265,Beijing,China,Tian'anmen Square (天安门广场),4bcc3b9868f976b07a386283,39.904661586005666,116.39134347438814,Plaza,21516000,https://en.wikipedia.org/wiki/Beijing,39.916666666667,116.38333333333
266,Beijing,China,Oriental Taipan (东方大班),4c9f10d319e4236a7ac35589,39.917929615246614,116.44811939332972,Massage Studio,21516000,https://en.wikipedia.org/wiki/Beijing,39.916666666667,116.38333333333
267,Beijing,China,卡门西班牙餐厅 Carmen Tapas Spanish Bar,4b4b28b0f964a5205f9326e3,39.935109633926324,116.44849055974505,Tapas Restaurant,21516000,https://en.wikipedia.org/wiki/Beijing,39.916666666667,116.38333333333
268,Beijing,China,Alba,4b6a7b14f964a52073d62be3,39.93936542916548,116.39835092200794,Café,21516000,https://en.wikipedia.org/wiki/Beijing,39.916666666667,116.38333333333
269,Beijing,China,零贰玖noodle,5433ded0498efe796113791b,39.93511071245557,116.43833650166134,Noodle House,21516000,https://en.wikipedia.org/wiki/Beijing,39.916666666667,116.38333333333
270,Beijing,China,Page One (叶壹堂),4fbdeec2e4b026b6e68422de,39.93434940900254,116.44905410767903,Bookstore,21516000,https://en.wikipedia.org/wiki/Beijing,39.916666666667,116.38333333333
271,Beijing,China,China Grill (北京亮),4c504b74885c1b8d09fa0239,39.90616969051422,116.45302560754493,Restaurant,21516000,https://en.wikipedia.org/wiki/Beijing,39.916666666667,116.38333333333
272,Beijing,China,Lumière Pavilions Cinema (卢米埃影城),50e3d5d4e4b0b76a45639cd3,39.91820113022737,116.44302782020264,Movie Theater,21516000,https://en.wikipedia.org/wiki/Beijing,39.916666666667,116.38333333333
273,Beijing,China,4corners (肆角餐吧),4eff2dc6f9abd5b38fe65442,39.93906287164673,116.38751548376246,Vietnamese Restaurant,21516000,https://en.wikipedia.org/wiki/Beijing,39.916666666667,116.38333333333
274,Beijing,China,The Taco Bar,53a429d7498e56d991614995,39.93124961998479,116.45086803916747,Mexican Restaurant,21516000,https://en.wikipedia.org/wiki/Beijing,39.916666666667,116.38333333333
275,Beijing,China,Peiping Machine (北平机器),5793745c38fab55337df74e1,39.94201412421305,116.40539176593464,Bar,21516000,https://en.wikipedia.org/wiki/Beijing,39.916666666667,116.38333333333
276,Beijing,China,Bunny Drop 白兔糖咖啡,54925001498eac4fe20b59f4,39.940823,116.402488,Café,21516000,https://en.wikipedia.org/wiki/Beijing,39.916666666667,116.38333333333
277,Beijing,China,Jingzun Peking Duck Restaurant (京尊烤鸭),4bc98d623740b713dfe65e65,39.93586598597585,116.4377117602467,Peking Duck Restaurant,21516000,https://en.wikipedia.org/wiki/Beijing,39.916666666667,116.38333333333
278,Beijing,China,Café de la Poste (云游驿),4b37410ff964a5202b4025e3,39.9416003157403,116.41049868800681,French Restaurant,21516000,https://en.wikipedia.org/wiki/Beijing,39.916666666667,116.38333333333
279,Beijing,China,Morning (过早),561e1551498e17ea49c26f71,39.93756956890003,116.4383236616026,Hubei Restaurant,21516000,https://en.wikipedia.org/wiki/Beijing,39.916666666667,116.38333333333
280,Beijing,China,taishuxi,52c7a240498e3ffbfd649e43,39.920989990234375,116.44039154052734,Asian Restaurant,21516000,https://en.wikipedia.org/wiki/Beijing,39.916666666667,116.38333333333
281,Beijing,China,海底捞火锅 Haidilao Hot Pot,50016d42e4b034c29382bd5f,39.97008108484313,116.44122812834948,Hotpot Restaurant,21516000,https://en.wikipedia.org/wiki/Beijing,39.916666666667,116.38333333333
282,Beijing,China,8号温泉 No. 8 Hot Springs Club,4e75baf7483b0cf5ece0a417,39.936530878832436,116.47129841417875,Hot Spring,21516000,https://en.wikipedia.org/wiki/Beijing,39.916666666667,116.38333333333
283,Beijing,China,平娃三宝,4c55522af5f3d13a219792fb,39.9272876585608,116.45260493571097,Chinese Restaurant,21516000,https://en.wikipedia.org/wiki/Beijing,39.916666666667,116.38333333333
284,Beijing,China,Gung Ho Pizza (Gung Ho Pizza 叫板！披萨),4c45644e56a7ef3b8791ce21,39.93125565788497,116.4448450818357,Pizza Place,21516000,https://en.wikipedia.org/wiki/Beijing,39.916666666667,116.38333333333
285,Beijing,China,Spoonful of Sugar Cafe,531ac17d498e04e8dc3b5b53,39.892179120577524,116.38283802607931,Café,21516000,https://en.wikipedia.org/wiki/Beijing,39.916666666667,116.38333333333
286,Beijing,China,Dada Bar,50129bb3e4b080ff6a982ad3,39.93888993778263,116.39287054059633,Bar,21516000,https://en.wikipedia.org/wiki/Beijing,39.916666666667,116.38333333333
287,Beijing,China,眉州东坡酒楼 Meizhou Dongpo Restaurant,4b8fac71f964a520645c33e3,39.92900150128262,116.46466376599295,Chinese Restaurant,21516000,https://en.wikipedia.org/wiki/Beijing,39.916666666667,116.38333333333
288,Beijing,China,Paris Baguette,4b59006df964a520cc7728e3,39.965417014120185,116.47504694663796,Bakery,21516000,https://en.wikipedia.org/wiki/Beijing,39.916666666667,116.38333333333
289,Beijing,China,伊锦园,4bb6a4c346d4a593af9bc6c0,39.97576436659461,116.42476900946475,Halal Restaurant,21516000,https://en.wikipedia.org/wiki/Beijing,39.916666666667,116.38333333333
290,Beijing,China,Read Cafe 阅咖啡,5129dd42e4b0173cf88fb459,39.89771720617529,116.45274433834268,Café,21516000,https://en.wikipedia.org/wiki/Beijing,39.916666666667,116.38333333333
291,Beijing,China,Isshin (一心),4b56eba3f964a5204c1f28e3,39.99267041060298,116.33045142664484,Japanese Restaurant,21516000,https://en.wikipedia.org/wiki/Beijing,39.916666666667,116.38333333333
292,Beijing,China,MOKA Bros,52099d8d93cd0a4625fab9fc,39.934622652320456,116.44848435379373,Café,21516000,https://en.wikipedia.org/wiki/Beijing,39.916666666667,116.38333333333
293,Beijing,China,平娃三宝,4e3be212c65b4ec275cc75ed,39.857224381440865,116.42049267767422,Shaanxi Restaurant,21516000,https://en.wikipedia.org/wiki/Beijing,39.916666666667,116.38333333333
294,Beijing,China,木屋烧烤,53a810b4498ebde19e838016,40.000879,116.456847,BBQ Joint,21516000,https://en.wikipedia.org/wiki/Beijing,39.916666666667,116.38333333333
295,Beijing,China,Bistrot B (怡庭),54620054498e8f77da78ace3,39.91857766203287,116.45490980380313,French Restaurant,21516000,https://en.wikipedia.org/wiki/Beijing,39.916666666667,116.38333333333
296,Beijing,China,海底捞火锅 Haidilao Hot Pot,51133012e4b0ed2edbe9bb1f,39.96472824163375,116.33633664884768,Hotpot Restaurant,21516000,https://en.wikipedia.org/wiki/Beijing,39.916666666667,116.38333333333
297,Beijing,China,Pie Squared Pizza (方派披萨),5111fe2fe4b0c5761eeabe54,40.03294420584807,116.52109258782093,Pizza Place,21516000,https://en.wikipedia.org/wiki/Beijing,39.916666666667,116.38333333333
298,Beijing,China,Da Giuliano Pasticceria Panetteria,4e9526c377c8b4b40eda581d,39.94248966765678,116.44623748760606,Bakery,21516000,https://en.wikipedia.org/wiki/Beijing,39.916666666667,116.38333333333
299,Dhaka,Bangladesh,Movenpick,4be12ee6c1732d7f786c5b9a,23.792333345661586,90.4153732543889,Ice Cream Shop,14399000,https://en.wikipedia.org/wiki/Dhaka,23.716111111111,90.396111111111
300,Dhaka,Bangladesh,North End Coffee Roasters @ Cityscape Tower,5670eeda498efccf880ad543,23.78582613439328,90.41698591411128,Coffee Shop,14399000,https://en.wikipedia.org/wiki/Dhaka,23.716111111111,90.396111111111
301,Dhaka,Bangladesh,Uttara Club Limited,4d529cf29ffc236aa6fe2ea7,23.859599806186385,90.40390976218796,Nightclub,14399000,https://en.wikipedia.org/wiki/Dhaka,23.716111111111,90.396111111111
302,Dhaka,Bangladesh,The American Club,4cd4c62cdfb4a1cd7e6b555c,23.80231882134747,90.40985352120094,Nightclub,14399000,https://en.wikipedia.org/wiki/Dhaka,23.716111111111,90.396111111111
303,Dhaka,Bangladesh,Lucknow,54fb2868498e665a4ff9d12b,23.79330067997599,90.40915661391679,Indian Restaurant,14399000,https://en.wikipedia.org/wiki/Dhaka,23.716111111111,90.396111111111
304,Dhaka,Bangladesh,Le MERIDIEN Dhaka,5059d857498e8786ff8739cf,23.836332109693775,90.41771113872528,Resort,14399000,https://en.wikipedia.org/wiki/Dhaka,23.716111111111,90.396111111111
305,Dhaka,Bangladesh,Dhaka Club,4d25c4ff38d0236afb73eeb6,23.73887468354155,90.39734086589266,Nightclub,14399000,https://en.wikipedia.org/wiki/Dhaka,23.716111111111,90.396111111111
306,Dhaka,Bangladesh,Russel Square (রাসেল স্কয়ার),4d6dcef924b56ea89bbcf7fb,23.751312,90.378437,Plaza,14399000,https://en.wikipedia.org/wiki/Dhaka,23.716111111111,90.396111111111
307,Dhaka,Bangladesh,Izumi,4c5814257329c92817379080,23.788599314535148,90.42053610354871,Sushi Restaurant,14399000,https://en.wikipedia.org/wiki/Dhaka,23.716111111111,90.396111111111
308,Dhaka,Bangladesh,Star Cineplex,4d4ba488c87b54819f14c688,23.751411462050665,90.39071152582166,Multiplex,14399000,https://en.wikipedia.org/wiki/Dhaka,23.716111111111,90.396111111111
309,Dhaka,Bangladesh,Bashundhara City Shopping Complex,4b92802ff964a5209cfe33e3,23.751131,90.390854,Shopping Mall,14399000,https://en.wikipedia.org/wiki/Dhaka,23.716111111111,90.396111111111
310,Dhaka,Bangladesh,"Gloria Jeans Coffees, Dhanmondi",54808b16498ee27c614f1960,23.74986316951096,90.36870915340121,Coffee Shop,14399000,https://en.wikipedia.org/wiki/Dhaka,23.716111111111,90.396111111111
311,Dhaka,Bangladesh,Tabaq,52595e5711d22764b040362c,23.812955749079816,90.42387930210275,Coffee Shop,14399000,https://en.wikipedia.org/wiki/Dhaka,23.716111111111,90.396111111111
312,Dhaka,Bangladesh,Pool Bar Le Meridien Dhaka,591861e72ebb3402205a934b,23.83647065375581,90.41818271000196,Bar,14399000,https://en.wikipedia.org/wiki/Dhaka,23.716111111111,90.396111111111
313,Dhaka,Bangladesh,Barista Lavazza,4c8e3793daa937041c9c4ab1,23.776638517837274,90.41700596906874,Coffee Shop,14399000,https://en.wikipedia.org/wiki/Dhaka,23.716111111111,90.396111111111
314,Dhaka,Bangladesh,Dutch Club Dhaka,4c964587f244b1f7e7e3321d,23.80317211579511,90.4142191663259,Nightclub,14399000,https://en.wikipedia.org/wiki/Dhaka,23.716111111111,90.396111111111
315,Dhaka,Bangladesh,Nordic Club,4bb6fafd2ea195211976ac2f,23.79807288797643,90.40996694294208,Gym / Fitness Center,14399000,https://en.wikipedia.org/wiki/Dhaka,23.716111111111,90.396111111111
316,Dhaka,Bangladesh,"Sausly's, Dhanmondi",4cfcb6b3d8468cfaddd4fb6b,23.755445373360583,90.37576236327799,Sandwich Place,14399000,https://en.wikipedia.org/wiki/Dhaka,23.716111111111,90.396111111111
317,Dhaka,Bangladesh,Watercress,51dd844f498ee2faa3488583,23.770670593172035,90.4064646141654,Asian Restaurant,14399000,https://en.wikipedia.org/wiki/Dhaka,23.716111111111,90.396111111111
318,Dhaka,Bangladesh,Nando's (Gulshan),4c90f6c557e5b60c99935c1c,23.776582057100864,90.41662438343621,Portuguese Restaurant,14399000,https://en.wikipedia.org/wiki/Dhaka,23.716111111111,90.396111111111
319,Dhaka,Bangladesh,"Aarong, Uttara",4cb99d9fbac937042171e57c,23.861745675059613,90.39982053902203,Arts & Crafts Store,14399000,https://en.wikipedia.org/wiki/Dhaka,23.716111111111,90.396111111111
320,Dhaka,Bangladesh,Saltz,4d5942a1c88da1cd74273868,23.799106081259087,90.41218764345105,Seafood Restaurant,14399000,https://en.wikipedia.org/wiki/Dhaka,23.716111111111,90.396111111111
321,Dhaka,Bangladesh,Bella Italia,4bf4f6f5cad2c92851809c99,23.784032965015072,90.41708232398575,Italian Restaurant,14399000,https://en.wikipedia.org/wiki/Dhaka,23.716111111111,90.396111111111
322,Dhaka,Bangladesh,A&W,4b7e0e6df964a5201ae12fe3,23.78123871266626,90.41664293051168,Fast Food Restaurant,14399000,https://en.wikipedia.org/wiki/Dhaka,23.716111111111,90.396111111111
323,Dhaka,Bangladesh,Second Cup Coffee Company,5644607738fa0b26c0c524f5,23.793574175166118,90.40462430393767,Coffee Shop,14399000,https://en.wikipedia.org/wiki/Dhaka,23.716111111111,90.396111111111
324,Dhaka,Bangladesh,Coffee Bean & Tea Leaf,566ab776498ef09a25793e79,23.788336535936857,90.41858186330006,Coffee Shop,14399000,https://en.wikipedia.org/wiki/Dhaka,23.716111111111,90.396111111111
325,Dhaka,Bangladesh,Drik Gallery,4d65049b5a27b1f72867fa5d,23.752379683658027,90.36997237339781,Art Gallery,14399000,https://en.wikipedia.org/wiki/Dhaka,23.716111111111,90.396111111111
326,Dhaka,Bangladesh,Columbus coffee,55747c2e498eef85b23fdd0f,23.790160229621424,90.4080981016159,Coffee Shop,14399000,https://en.wikipedia.org/wiki/Dhaka,23.716111111111,90.396111111111
327,Dhaka,Bangladesh,Tarka,5326ae5011d2f80cb8cebfd7,23.791372538665602,90.40617976651895,Indian Restaurant,14399000,https://en.wikipedia.org/wiki/Dhaka,23.716111111111,90.396111111111
328,Dhaka,Bangladesh,Pizza Hut (Gulshan),4c7a538cdf08a1cddf66dd5d,23.77672470509513,90.41675141617046,Pizza Place,14399000,https://en.wikipedia.org/wiki/Dhaka,23.716111111111,90.396111111111
329,Dhaka,Bangladesh,Nando's,4d29af54ebacb1f7cb09fd4f,23.753044818952592,90.3697655247509,Portuguese Restaurant,14399000,https://en.wikipedia.org/wiki/Dhaka,23.716111111111,90.396111111111
330,Dhaka,Bangladesh,Agora - Uttara West,51c5b836498e71cc04e88db2,23.869394288479903,90.3892933559188,Market,14399000,https://en.wikipedia.org/wiki/Dhaka,23.716111111111,90.396111111111
331,Dhaka,Bangladesh,Kurmitola Golf Club,4c6e883c1cbeb71301d79e3c,23.799037649960187,90.39666921879511,Golf Course,14399000,https://en.wikipedia.org/wiki/Dhaka,23.716111111111,90.396111111111
332,Dhaka,Bangladesh,Ahsan Manzil,50dac099e4b0260d20c4953b,23.708143986361446,90.40634480351736,History Museum,14399000,https://en.wikipedia.org/wiki/Dhaka,23.716111111111,90.396111111111
333,Dhaka,Bangladesh,Bistro E,5526a042498eb90a6626619c,23.796045849649897,90.41737287555931,Bistro,14399000,https://en.wikipedia.org/wiki/Dhaka,23.716111111111,90.396111111111
334,Dhaka,Bangladesh,Fish & Co.,5406ca5a498e1bd4f3f4ce94,23.776834533928014,90.41655931725954,Fish & Chips Shop,14399000,https://en.wikipedia.org/wiki/Dhaka,23.716111111111,90.396111111111
335,Dhaka,Bangladesh,Bar-B-Q Tonite,4cb9c8be9552b60cc3b4d58b,23.752051006748985,90.36802116745663,BBQ Joint,14399000,https://en.wikipedia.org/wiki/Dhaka,23.716111111111,90.396111111111
336,Dhaka,Bangladesh,Time Out,4d2c35a6068e8cfaa2e9e94c,23.79226840677251,90.40930676140928,Asian Restaurant,14399000,https://en.wikipedia.org/wiki/Dhaka,23.716111111111,90.396111111111
337,Dhaka,Bangladesh,Butlers Chocolate Cafe,5662e832498e1563b69e63ee,23.800364648171378,90.41184933456084,Café,14399000,https://en.wikipedia.org/wiki/Dhaka,23.716111111111,90.396111111111
338,Dhaka,Bangladesh,bbq Bangladesh,52cbccf6498ecb10330d3c60,23.800194,90.411835,Fast Food Restaurant,14399000,https://en.wikipedia.org/wiki/Dhaka,23.716111111111,90.396111111111
339,Dhaka,Bangladesh,George's Cafe,5222453711d2e0c83682a75d,23.859407054866413,90.40088926925031,Café,14399000,https://en.wikipedia.org/wiki/Dhaka,23.716111111111,90.396111111111
340,Dhaka,Bangladesh,Turkish Kebab & Pizza,506e9003e4b0258b1f042991,23.86084441903601,90.40009838925218,Turkish Restaurant,14399000,https://en.wikipedia.org/wiki/Dhaka,23.716111111111,90.396111111111
341,Dhaka,Bangladesh,Gloria Jean's Coffee,506ed31ee4b002a9400fd89b,23.77920048205812,90.4164934786589,Coffee Shop,14399000,https://en.wikipedia.org/wiki/Dhaka,23.716111111111,90.396111111111
342,Dhaka,Bangladesh,Burger N Boost,50f2ce2fe4b060b67b58ce1b,23.74174195273583,90.374299802186,Burger Joint,14399000,https://en.wikipedia.org/wiki/Dhaka,23.716111111111,90.396111111111
343,Dhaka,Bangladesh,Chobir Hat,4e0db94762e1d5a30cf981cc,23.735492473896194,90.39567103945569,Art Gallery,14399000,https://en.wikipedia.org/wiki/Dhaka,23.716111111111,90.396111111111
344,Dhaka,Bangladesh,Gloria Jeans Gulshan2,55f965f8498e8148faea8089,23.8042126256089,90.41308196558468,Coffee Shop,14399000,https://en.wikipedia.org/wiki/Dhaka,23.716111111111,90.396111111111
345,Dhaka,Bangladesh,Agora Super Store,4db95511cda10f31e62966ed,23.73826837670933,90.37745849844407,Convenience Store,14399000,https://en.wikipedia.org/wiki/Dhaka,23.716111111111,90.396111111111
346,Dhaka,Bangladesh,German Club,4e6b38d3227162c38ec51ae9,23.793683517449622,90.41960934419907,Beer Garden,14399000,https://en.wikipedia.org/wiki/Dhaka,23.716111111111,90.396111111111
347,Dhaka,Bangladesh,Shahbag,4f3d2388e4b08f6e5882b5ff,23.738535107901406,90.39585497706712,Plaza,14399000,https://en.wikipedia.org/wiki/Dhaka,23.716111111111,90.396111111111
348,Dhaka,Bangladesh,Lake Shore Hotel,4cac03035a1e9521bc468ece,23.79035176875522,90.41237400138101,Hotel,14399000,https://en.wikipedia.org/wiki/Dhaka,23.716111111111,90.396111111111
349,Dhaka,Bangladesh,Tehari Ghar,4dababff6e81162ae7f2a90d,23.753634591761628,90.3767012726286,Asian Restaurant,14399000,https://en.wikipedia.org/wiki/Dhaka,23.716111111111,90.396111111111
350,Dhaka,Bangladesh,Spaghetti Jazz,4d31cfdbc75a6ea842e407ae,23.795031845262507,90.41428466997871,Jazz Club,14399000,https://en.wikipedia.org/wiki/Dhaka,23.716111111111,90.396111111111
351,Dhaka,Bangladesh,Star Kabab & Restaurant,4bf390083f86c9b6ce4ab21c,23.793330075666095,90.40322404501005,Asian Restaurant,14399000,https://en.wikipedia.org/wiki/Dhaka,23.716111111111,90.396111111111
352,Dhaka,Bangladesh,New Market,4c03a9019a7920a14225d079,23.733606124073624,90.38439297784305,Market,14399000,https://en.wikipedia.org/wiki/Dhaka,23.716111111111,90.396111111111
353,Dhaka,Bangladesh,Star Kabab & Restaurant,4d904ec81d06b1f7ae6c713b,23.721080386121905,90.41414036994503,Restaurant,14399000,https://en.wikipedia.org/wiki/Dhaka,23.716111111111,90.396111111111
354,Dhaka,Bangladesh,Gulshan - 1 DCC Market,4e9c17b85503cfce74dbc870,23.77982722048736,90.41594624519348,Shopping Mall,14399000,https://en.wikipedia.org/wiki/Dhaka,23.716111111111,90.396111111111
355,Dhaka,Bangladesh,"BFC, Dhanmondi",4e65d466d4c06542ac61ce00,23.755495,90.375534,Fried Chicken Joint,14399000,https://en.wikipedia.org/wiki/Dhaka,23.716111111111,90.396111111111
356,Dhaka,Bangladesh,Hirajheel Hotel & Restaurent,503c5ab8e4b0295913c68cda,23.724898163010938,90.4215646183808,Restaurant,14399000,https://en.wikipedia.org/wiki/Dhaka,23.716111111111,90.396111111111
357,Dhaka,Bangladesh,Hajir Biriani,50f91e4de4b0fe0285d35b09,23.721662906898224,90.40568680682156,Diner,14399000,https://en.wikipedia.org/wiki/Dhaka,23.716111111111,90.396111111111
358,Dhaka,Bangladesh,Nilkhet Book Market,4b9a0352f964a5200a9b35e3,23.733882219342053,90.38697918880398,Bookstore,14399000,https://en.wikipedia.org/wiki/Dhaka,23.716111111111,90.396111111111
359,Dhaka,Bangladesh,Burger Lab,567bdc18498e1d6a154f6648,23.812615,90.424544,Burger Joint,14399000,https://en.wikipedia.org/wiki/Dhaka,23.716111111111,90.396111111111
360,Dhaka,Bangladesh,Star Kabab & Bakery,51d6de26498efa52ef93aed3,23.753075808636588,90.39209220304144,Restaurant,14399000,https://en.wikipedia.org/wiki/Dhaka,23.716111111111,90.396111111111
361,Dhaka,Bangladesh,Star Kabab,4b9b2582f964a5200ef635e3,23.73915469967493,90.38111195066064,Restaurant,14399000,https://en.wikipedia.org/wiki/Dhaka,23.716111111111,90.396111111111
362,Dhaka,Bangladesh,Apon Coffee House,53d909e3498e55b92a639996,23.75226033213149,90.4211175441742,Coffee Shop,14399000,https://en.wikipedia.org/wiki/Dhaka,23.716111111111,90.396111111111
363,Dhaka,Bangladesh,Taste,4c1ad5a3b306c928f65761b7,23.793325,90.41465,Café,14399000,https://en.wikipedia.org/wiki/Dhaka,23.716111111111,90.396111111111
364,Dhaka,Bangladesh,"Shawarma House, Dhanmondi (2nd Branch)",4cc539431e596dcbdf98d667,23.740686881476663,90.38271903991699,Pizza Place,14399000,https://en.wikipedia.org/wiki/Dhaka,23.716111111111,90.396111111111
365,Dhaka,Bangladesh,"Aarong, Dhanmondi",4c86425fe602b1f7384ebe7a,23.758282791670332,90.37410210290383,Arts & Crafts Store,14399000,https://en.wikipedia.org/wiki/Dhaka,23.716111111111,90.396111111111
366,Dhaka,Bangladesh,"KFC, Dhanmondi",4b953fc6f964a520d69734e3,23.74470476687947,90.37711448959907,Fried Chicken Joint,14399000,https://en.wikipedia.org/wiki/Dhaka,23.716111111111,90.396111111111
367,Dhaka,Bangladesh,Khamar Bari Mor,50eac355e4b07c15c9fb4f6f,23.75929155631155,90.38350081143942,Plaza,14399000,https://en.wikipedia.org/wiki/Dhaka,23.716111111111,90.396111111111
368,Dhaka,Bangladesh,Cafe SoI 3,5067a303e4b0da4f2009f3f7,23.73993968937434,90.37893668461413,Café,14399000,https://en.wikipedia.org/wiki/Dhaka,23.716111111111,90.396111111111
369,Dhaka,Bangladesh,CapriCorn's Skywatch,51cebad6498e603a98438a01,23.750684456953255,90.39086868901256,Asian Restaurant,14399000,https://en.wikipedia.org/wiki/Dhaka,23.716111111111,90.396111111111
370,Dhaka,Bangladesh,Capricorn's World,4ea956e0f790328ae1b57b1a,23.750418890432083,90.39082897540597,Restaurant,14399000,https://en.wikipedia.org/wiki/Dhaka,23.716111111111,90.396111111111
371,Dhaka,Bangladesh,Metro Shopping Mall,4d021cca9f9ea143b1648da9,23.752682684915793,90.3774401343897,Shopping Mall,14399000,https://en.wikipedia.org/wiki/Dhaka,23.716111111111,90.396111111111
372,Dhaka,Bangladesh,Baburchi Restaurant,4da9a8edfa8cc764971f073d,23.74054355606105,90.37510899989165,Restaurant,14399000,https://en.wikipedia.org/wiki/Dhaka,23.716111111111,90.396111111111
373,Dhaka,Bangladesh,"Tree House, Banani",5579920b498e71f91e582b2d,23.791417909612605,90.4077758692452,Steakhouse,14399000,https://en.wikipedia.org/wiki/Dhaka,23.716111111111,90.396111111111
374,Dhaka,Bangladesh,Shimanta Square Food Court (Front Parking),519799d2498e9ad3fa04489f,23.738417412066998,90.3770722933282,Snack Place,14399000,https://en.wikipedia.org/wiki/Dhaka,23.716111111111,90.396111111111
375,Dhaka,Bangladesh,Bird's Eye Rooftop Restaurant,50f80cbee412888a1be4f4cb,23.73029592423332,90.41211605072021,Restaurant,14399000,https://en.wikipedia.org/wiki/Dhaka,23.716111111111,90.396111111111
376,Dhaka,Bangladesh,Sausly's Pantho Path,5128d616e4b0ac94ea40ba1d,23.75275735959935,90.38230975485479,Bakery,14399000,https://en.wikipedia.org/wiki/Dhaka,23.716111111111,90.396111111111
377,Dhaka,Bangladesh,Sbarro,54db00ba498e0422e7e23d47,23.796370408447082,90.41343224597634,Italian Restaurant,14399000,https://en.wikipedia.org/wiki/Dhaka,23.716111111111,90.396111111111
378,Dhaka,Bangladesh,"Kiva Han, Gulshan 1",519ce62a498e4edb08ffc5ba,23.781923,90.41586,Café,14399000,https://en.wikipedia.org/wiki/Dhaka,23.716111111111,90.396111111111
379,Dhaka,Bangladesh,Star Kabab & Reataurant,53a550e7498eac9e641dbe18,23.73762066075475,90.38696841709088,Bakery,14399000,https://en.wikipedia.org/wiki/Dhaka,23.716111111111,90.396111111111
380,Dhaka,Bangladesh,Holey Artisan Bakery  ,53ba665a498e952f7e2863d8,23.802536645833726,90.41671028176793,Bakery,14399000,https://en.wikipedia.org/wiki/Dhaka,23.716111111111,90.396111111111
381,Dhaka,Bangladesh,Burger n Boost (Dhanmondi),4eb695fb775b544c27c60856,23.743977213743978,90.36947254793729,Burger Joint,14399000,https://en.wikipedia.org/wiki/Dhaka,23.716111111111,90.396111111111
382,Mumbai,India,Hard Rock Café Mumbai,4b0587ccf964a52037a222e3,19.007121216001234,72.82925768102129,American Restaurant,12478447,https://en.wikipedia.org/wiki/Mumbai,18.975,72.825833333333
383,Mumbai,India,National Centre for the Performing Arts (NCPA),4e03166fb3ad7a4de179a603,18.92563130239702,72.81986117362976,Performing Arts Venue,12478447,https://en.wikipedia.org/wiki/Mumbai,18.975,72.825833333333
384,Mumbai,India,Narayan Dosa,4d455cd44e5d3704695cf693,18.95744533870669,72.81325090399687,Fast Food Restaurant,12478447,https://en.wikipedia.org/wiki/Mumbai,18.975,72.825833333333
385,Mumbai,India,High Street Phoenix,4b0587def964a520d6a422e3,18.994966958554343,72.82503247261047,Shopping Mall,12478447,https://en.wikipedia.org/wiki/Mumbai,18.975,72.825833333333
386,Mumbai,India,Café Zoe,4f2791aee4b0fa5ce519a11c,19.000225873557895,72.8302519464393,Café,12478447,https://en.wikipedia.org/wiki/Mumbai,18.975,72.825833333333
387,Mumbai,India,Sofitel Mumbai BKC,4d9b39ed2ae860fc0f5a81cb,19.067628414049473,72.86949888814853,Hotel,12478447,https://en.wikipedia.org/wiki/Mumbai,18.975,72.825833333333
388,Mumbai,India,Marine Drive,4b0587d1f964a520d1a222e3,18.941220560803895,72.82326137405234,Scenic Lookout,12478447,https://en.wikipedia.org/wiki/Mumbai,18.975,72.825833333333
389,Mumbai,India,Worli Sea Face,4b7fecb5f964a520c04430e3,19.009216497075652,72.8150224685669,Scenic Lookout,12478447,https://en.wikipedia.org/wiki/Mumbai,18.975,72.825833333333
390,Mumbai,India,Trishna,4b0587d5f964a52078a322e3,18.928618767483165,72.83235598103688,Seafood Restaurant,12478447,https://en.wikipedia.org/wiki/Mumbai,18.975,72.825833333333
391,Mumbai,India,Natural's Ice Cream Parlour,4ba9e19cf964a520ee3b3ae3,18.93489186136897,72.82422244548796,Ice Cream Shop,12478447,https://en.wikipedia.org/wiki/Mumbai,18.975,72.825833333333
392,Mumbai,India,Woodside Inn,4b0587cef964a5207ba222e3,18.92475092153973,72.8319296651825,Pub,12478447,https://en.wikipedia.org/wiki/Mumbai,18.975,72.825833333333
393,Mumbai,India,Jai Hind Lunch Home,4bfe4e1855539c7488d2bcf3,19.002182526961953,72.82951152511662,Seafood Restaurant,12478447,https://en.wikipedia.org/wiki/Mumbai,18.975,72.825833333333
394,Mumbai,India,Prithvi Theatre,4bcfe10f046076b0e02e6f71,19.106156977247707,72.82580993416029,Theater,12478447,https://en.wikipedia.org/wiki/Mumbai,18.975,72.825833333333
395,Mumbai,India,Escobar,4b632630f964a52084662ae3,19.0601765440514,72.83644615761388,Lounge,12478447,https://en.wikipedia.org/wiki/Mumbai,18.975,72.825833333333
396,Mumbai,India,Aer Four Seasons Hotel,4b3a44eaf964a520626325e3,18.99413180943845,72.82037725791443,Lounge,12478447,https://en.wikipedia.org/wiki/Mumbai,18.975,72.825833333333
397,Mumbai,India,Ming Yang,4b5dc6e6f964a520166b29e3,19.04358247268375,72.81919874442222,Chinese Restaurant,12478447,https://en.wikipedia.org/wiki/Mumbai,18.975,72.825833333333
398,Mumbai,India,Nariman Point,4c14f8be82a3c9b6b6fefdf8,18.92918335830556,72.82223224639893,Scenic Lookout,12478447,https://en.wikipedia.org/wiki/Mumbai,18.975,72.825833333333
399,Mumbai,India,Royal China,4caa0096d971b1f7ccca23e1,18.938715239156295,72.83293313173236,Chinese Restaurant,12478447,https://en.wikipedia.org/wiki/Mumbai,18.975,72.825833333333
400,Mumbai,India,Chhatrapati Shivaji Maharaj Vastu Sangrahalaya (Prince of Wales Museum of Western India),4b0587d1f964a520cfa222e3,18.92686438179064,72.83255875110626,History Museum,12478447,https://en.wikipedia.org/wiki/Mumbai,18.975,72.825833333333
401,Mumbai,India,Shree Thaker Bhojnalay,4e8c15697ee6beb5b5efb7e4,18.951216985262224,72.82832591412115,Indian Restaurant,12478447,https://en.wikipedia.org/wiki/Mumbai,18.975,72.825833333333
402,Mumbai,India,Café Mondegar,4b9c68ddf964a5209a6636e3,18.924219037574055,72.83210608191361,Café,12478447,https://en.wikipedia.org/wiki/Mumbai,18.975,72.825833333333
403,Mumbai,India,Willingdon Sports Club,4b0587e6f964a5206ca622e3,18.97692539446803,72.81525635164282,Golf Course,12478447,https://en.wikipedia.org/wiki/Mumbai,18.975,72.825833333333
404,Mumbai,India,Café Madras,4b0587cef964a52077a222e3,19.027721224984763,72.85519562611115,Café,12478447,https://en.wikipedia.org/wiki/Mumbai,18.975,72.825833333333
405,Mumbai,India,Swati Snacks,4b4edb8af964a52070f626e3,18.96644170253803,72.81353124991814,Indian Restaurant,12478447,https://en.wikipedia.org/wiki/Mumbai,18.975,72.825833333333
406,Mumbai,India,Hamleys,51d2a531454ad6055f94cdce,19.08665464005278,72.88978308735972,Toy / Game Store,12478447,https://en.wikipedia.org/wiki/Mumbai,18.975,72.825833333333
407,Mumbai,India,Jehangir Art Gallery,4b0587d3f964a5203ca322e3,18.927606328364668,72.8314638434005,Art Gallery,12478447,https://en.wikipedia.org/wiki/Mumbai,18.975,72.825833333333
408,Mumbai,India,Smoke House Deli,52beeef511d29221dcfc53e3,19.06548155786204,72.82986113508434,Deli / Bodega,12478447,https://en.wikipedia.org/wiki/Mumbai,18.975,72.825833333333
409,Mumbai,India,K Rustoms. Ice Cream,4d691357342b8cfa3170c32c,18.933478146064274,72.824995132785,Ice Cream Shop,12478447,https://en.wikipedia.org/wiki/Mumbai,18.975,72.825833333333
410,Mumbai,India,Ram Ashraya,4b0587d9f964a52021a422e3,19.02809204657728,72.85172889717309,Vegetarian / Vegan Restaurant,12478447,https://en.wikipedia.org/wiki/Mumbai,18.975,72.825833333333
411,Mumbai,India,Carter Road Promenade,4caaa63e2776b60c9f7d450d,19.067249529820025,72.82291516455471,Scenic Lookout,12478447,https://en.wikipedia.org/wiki/Mumbai,18.975,72.825833333333
412,Mumbai,India,Guru Kripa,4b0587d8f964a52008a422e3,19.042954612559253,72.86179617563526,Indian Restaurant,12478447,https://en.wikipedia.org/wiki/Mumbai,18.975,72.825833333333
413,Mumbai,India,Theobroma,4b991407f964a520ec5f35e3,19.065378997148745,72.83371155027025,Dessert Shop,12478447,https://en.wikipedia.org/wiki/Mumbai,18.975,72.825833333333
414,Mumbai,India,The Little Door,4f4e4c34e4b027c8742327cf,19.139264910758484,72.83317996821813,Pub,12478447,https://en.wikipedia.org/wiki/Mumbai,18.975,72.825833333333
415,Mumbai,India,Palladium,4fdd79fae4b0f11e3585ce32,18.99431718967026,72.82439809178742,Shopping Mall,12478447,https://en.wikipedia.org/wiki/Mumbai,18.975,72.825833333333
416,Mumbai,India,Queen's Necklace,4e0b2604814dac5b11ca6f9b,18.933982645438288,72.82389609019086,Beach,12478447,https://en.wikipedia.org/wiki/Mumbai,18.975,72.825833333333
417,Mumbai,India,Indigo Delicatessen,4bfe820fb68d0f47d545ea57,18.994498279390033,72.82375973512458,Deli / Bodega,12478447,https://en.wikipedia.org/wiki/Mumbai,18.975,72.825833333333
418,Mumbai,India,The Oberoi,4bb245d92397b71337ca36b3,18.92710051682048,72.82016472076614,Hotel,12478447,https://en.wikipedia.org/wiki/Mumbai,18.975,72.825833333333
419,Mumbai,India,"Sea Lounge, Taj Mahal Palace Hotel",4c332ca13896e21e658be990,18.92150340821261,72.83329756421982,Lounge,12478447,https://en.wikipedia.org/wiki/Mumbai,18.975,72.825833333333
420,Mumbai,India,Shivaji Park,4b0587d2f964a52014a322e3,19.027149683015146,72.83826112747192,Playground,12478447,https://en.wikipedia.org/wiki/Mumbai,18.975,72.825833333333
421,Mumbai,India,Bachelorr's Ice Creams,4b05a936f964a52075e022e3,18.954112687615716,72.81539588202173,Ice Cream Shop,12478447,https://en.wikipedia.org/wiki/Mumbai,18.975,72.825833333333
422,Mumbai,India,Bombay Canteen,54d39713498e901bd9f9e6eb,19.00341017043938,72.82781561443936,Indian Restaurant,12478447,https://en.wikipedia.org/wiki/Mumbai,18.975,72.825833333333
423,Mumbai,India,Smoke House Deli,4ed33d77f9f406f6febf671a,18.994478477555973,72.82439980446927,Restaurant,12478447,https://en.wikipedia.org/wiki/Mumbai,18.975,72.825833333333
424,Mumbai,India,The Malabar Hill Club,4bd8534435aad13a818e90f3,18.954392250210518,72.8035103932751,Restaurant,12478447,https://en.wikipedia.org/wiki/Mumbai,18.975,72.825833333333
425,Mumbai,India,Oven Fresh,4bf949e6c07c9c74c000bcef,19.023962405111245,72.83791159865079,Bakery,12478447,https://en.wikipedia.org/wiki/Mumbai,18.975,72.825833333333
426,Mumbai,India,The Sassy Spoon,510be019e4b04c8c9a348a1a,18.928425922468104,72.82251196171583,Diner,12478447,https://en.wikipedia.org/wiki/Mumbai,18.975,72.825833333333
427,Mumbai,India,Jogger's Park,4b0587d2f964a52009a322e3,19.059728381291716,72.82205540884804,Park,12478447,https://en.wikipedia.org/wiki/Mumbai,18.975,72.825833333333
428,Mumbai,India,The Sahib Room & Kipling Bar,5388910d498e63a9b042c96d,18.99433338351496,72.82384950789341,Indian Restaurant,12478447,https://en.wikipedia.org/wiki/Mumbai,18.975,72.825833333333
429,Mumbai,India,Theobroma,4b1145fff964a520937923e3,18.91929830684632,72.82918453216553,Dessert Shop,12478447,https://en.wikipedia.org/wiki/Mumbai,18.975,72.825833333333
430,Mumbai,India,Silver Beach,4d765a598d7e236a8ff4b528,19.114905929176217,72.82270743862074,Beach,12478447,https://en.wikipedia.org/wiki/Mumbai,18.975,72.825833333333
431,Mumbai,India,New Martin,4b0587d5f964a5208da322e3,18.91862420333764,72.82951216623856,Indian Restaurant,12478447,https://en.wikipedia.org/wiki/Mumbai,18.975,72.825833333333
432,Mumbai,India,Salt Water Cafe,4b0587ccf964a5202ea222e3,19.050517590688695,72.82694172487432,Deli / Bodega,12478447,https://en.wikipedia.org/wiki/Mumbai,18.975,72.825833333333
433,Mumbai,India,Haji Ali Sea Face,4dc0d7281838710f436fa414,18.978995070192834,72.81185351318547,Scenic Lookout,12478447,https://en.wikipedia.org/wiki/Mumbai,18.975,72.825833333333
434,Mumbai,India,Pali Village Café,4be57f22bcef2d7fa4d603e5,19.063299558587033,72.82945239973539,Café,12478447,https://en.wikipedia.org/wiki/Mumbai,18.975,72.825833333333
435,Mumbai,India,Indigo Deli,4f927a04e4b020d1a28662c8,19.06171028998035,72.82997150211034,Deli / Bodega,12478447,https://en.wikipedia.org/wiki/Mumbai,18.975,72.825833333333
436,Mumbai,India,Hearsch Bakery,4b0587e2f964a52094a522e3,19.055119886795794,72.82700605766848,Bakery,12478447,https://en.wikipedia.org/wiki/Mumbai,18.975,72.825833333333
437,Mumbai,India,Priyadarshini Park,4c9174ec238c6dcb067ec055,18.95751519120163,72.79961414024795,Park,12478447,https://en.wikipedia.org/wiki/Mumbai,18.975,72.825833333333
438,Mumbai,India,Four Seasons,4b9f0445f964a5202e1037e3,18.9943558114436,72.82031891150143,Hotel,12478447,https://en.wikipedia.org/wiki/Mumbai,18.975,72.825833333333
439,Mumbai,India,PVR Cinemas,50950f23e4b0578aae7a7a00,19.08664273439014,72.88983942558215,Movie Theater,12478447,https://en.wikipedia.org/wiki/Mumbai,18.975,72.825833333333
440,Mumbai,India,Chocolateria San Churro,4d4e813f8975a35d66630fa8,19.061917933615774,72.83447969968148,Dessert Shop,12478447,https://en.wikipedia.org/wiki/Mumbai,18.975,72.825833333333
441,Mumbai,India,Bombay Salad Co.,5496e94e498e349305d81639,19.064715341256164,72.83091998224552,Salad Place,12478447,https://en.wikipedia.org/wiki/Mumbai,18.975,72.825833333333
442,Mumbai,India,Starbucks Coffee: A Tata Alliance,5286f821498e858fbcaef672,19.069457203343983,72.86937454370329,Coffee Shop,12478447,https://en.wikipedia.org/wiki/Mumbai,18.975,72.825833333333
443,Mumbai,India,R City Mall,4b27c85ff964a520dc8924e3,19.09932003159513,72.91671410367032,Shopping Mall,12478447,https://en.wikipedia.org/wiki/Mumbai,18.975,72.825833333333
444,Mumbai,India,The Irish House,4ec242c210810143d3917d76,18.994416104869014,72.82472133636475,Pub,12478447,https://en.wikipedia.org/wiki/Mumbai,18.975,72.825833333333
445,Mumbai,India,MCA Club,4b5b4ecdf964a5206af328e3,19.060442786769624,72.86602023390516,Gym Pool,12478447,https://en.wikipedia.org/wiki/Mumbai,18.975,72.825833333333
446,Mumbai,India,Richardson and Cruddas,4d01c09e02d0a35dcf3c9b7e,18.96649121831483,72.83279348277897,Music Venue,12478447,https://en.wikipedia.org/wiki/Mumbai,18.975,72.825833333333
447,Mumbai,India,Leopold Café,4ce68ea5f1c6236a571f54f0,18.922797215063532,72.83166825771332,Café,12478447,https://en.wikipedia.org/wiki/Mumbai,18.975,72.825833333333
448,Mumbai,India,Wasabi by Morimoto,4b41e0cff964a520b8c925e3,18.922011858054795,72.83366279313577,Japanese Restaurant,12478447,https://en.wikipedia.org/wiki/Mumbai,18.975,72.825833333333
449,Mumbai,India,Bhagat Tarachand Restaurant,4b0587d8f964a52006a422e3,18.951801999721898,72.83048598110027,Indian Restaurant,12478447,https://en.wikipedia.org/wiki/Mumbai,18.975,72.825833333333
450,Mumbai,India,Tata Theatre,4eb27d72b80348350a113945,18.925062966444333,72.8199577331543,Theater,12478447,https://en.wikipedia.org/wiki/Mumbai,18.975,72.825833333333
451,Mumbai,India,Bombay Coffee House,56e3bcf6498e13373cb379c6,19.063424743075647,72.83467077961646,Café,12478447,https://en.wikipedia.org/wiki/Mumbai,18.975,72.825833333333
452,Mumbai,India,Candies,4b3b43c3f964a520f57125e3,19.06115067399369,72.82672921212136,Bakery,12478447,https://en.wikipedia.org/wiki/Mumbai,18.975,72.825833333333
453,Mumbai,India,Café Basilico,4b0587d5f964a5208aa322e3,18.91860901934294,72.83048426934867,Diner,12478447,https://en.wikipedia.org/wiki/Mumbai,18.975,72.825833333333
454,Mumbai,India,Carter's Blue,4db04fc00cb6442b2eb5f646,19.07078342149227,72.8230446191692,Fried Chicken Joint,12478447,https://en.wikipedia.org/wiki/Mumbai,18.975,72.825833333333
455,Mumbai,India,Yauatcha,4ee333ba9adf3982fe44da3b,19.061370373594787,72.86268046846791,Dim Sum Restaurant,12478447,https://en.wikipedia.org/wiki/Mumbai,18.975,72.825833333333
456,Mumbai,India,Mehboob Studios,4d4e87f49a2a6ea81b6d236f,19.052331568499458,72.82499241418333,Performing Arts Venue,12478447,https://en.wikipedia.org/wiki/Mumbai,18.975,72.825833333333
457,Mumbai,India,Le15 Patisserie,514c4e2ee4b0181e4990bfc1,19.066026864109162,72.82988741981241,Cupcake Shop,12478447,https://en.wikipedia.org/wiki/Mumbai,18.975,72.825833333333
458,Mumbai,India,Natural's Ice Cream,4ccc2f76566aa0931aa61ffd,19.07755998111434,72.8630348274812,Ice Cream Shop,12478447,https://en.wikipedia.org/wiki/Mumbai,18.975,72.825833333333
459,Mumbai,India,Punjab Sweet House And Restaurant,4be958699a54a593eaee0a11,19.06255314675695,72.82942295777715,Indian Restaurant,12478447,https://en.wikipedia.org/wiki/Mumbai,18.975,72.825833333333
460,Mumbai,India,Mahesh Lunch Home,4d04fc8b30a58cfaead2a2e7,19.10367993652122,72.82679442182634,Seafood Restaurant,12478447,https://en.wikipedia.org/wiki/Mumbai,18.975,72.825833333333
461,Mumbai,India,Sabyasachi,4e159ee718384368edd10486,18.926989753183356,72.83318533588488,Boutique,12478447,https://en.wikipedia.org/wiki/Mumbai,18.975,72.825833333333
462,Mumbai,India,Doolally Taproom,56433c85498ee4d7ac3bca83,19.13591735538127,72.83309403406167,Brewery,12478447,https://en.wikipedia.org/wiki/Mumbai,18.975,72.825833333333
463,Mumbai,India,Khau Galli,4b4c8f5df964a5201cb626e3,19.080015997988916,72.90621625118303,Food Truck,12478447,https://en.wikipedia.org/wiki/Mumbai,18.975,72.825833333333
464,Mumbai,India,Kala Ghoda Café,4b0587cff964a5208ca222e3,18.928515092036694,72.83235419845913,Café,12478447,https://en.wikipedia.org/wiki/Mumbai,18.975,72.825833333333
465,Mumbai,India,Prithvi Cafe,4b0587cdf964a52047a222e3,19.106153210060764,72.82586610755753,Café,12478447,https://en.wikipedia.org/wiki/Mumbai,18.975,72.825833333333
466,Mumbai,India,SMAAASH,50715ea7e4b0db7c162854e8,19.00447181182,72.82611441943598,Athletics & Sports,12478447,https://en.wikipedia.org/wiki/Mumbai,18.975,72.825833333333
467,Mumbai,India,Tote On The Turf,4ef661dc7ee5bf7993ab29b7,18.980265920888122,72.82029378131506,Nightclub,12478447,https://en.wikipedia.org/wiki/Mumbai,18.975,72.825833333333
468,Mumbai,India,Muthuswamy's Arya Bhavan,4b3efe7ef964a52075a325e3,19.02708378949544,72.8509120771071,Indian Restaurant,12478447,https://en.wikipedia.org/wiki/Mumbai,18.975,72.825833333333
469,Mumbai,India,Terttulia,50d801d6e4b09e2e64f6f437,19.0256377551095,72.83541620186854,Italian Restaurant,12478447,https://en.wikipedia.org/wiki/Mumbai,18.975,72.825833333333
470,Mumbai,India,Copper Chimney,4c0df4282466a59340577821,18.98835720194232,72.81382790299645,Indian Restaurant,12478447,https://en.wikipedia.org/wiki/Mumbai,18.975,72.825833333333
471,Mumbai,India,Out of the Blue,4b0587ccf964a52035a222e3,19.07175568646313,72.825535360731,Italian Restaurant,12478447,https://en.wikipedia.org/wiki/Mumbai,18.975,72.825833333333
472,Mumbai,India,Anand Dosa,4bcc3ccf511f95219a9bb2c7,19.102981786665428,72.83686050799356,Breakfast Spot,12478447,https://en.wikipedia.org/wiki/Mumbai,18.975,72.825833333333
473,Mumbai,India,The Leela,4cfe904e66ee9eb02ce2a64e,19.10909511511734,72.87411353592037,Hotel,12478447,https://en.wikipedia.org/wiki/Mumbai,18.975,72.825833333333
474,Mumbai,India,Olive Bar & Kitchen,4b0587d0f964a520c1a222e3,19.07184565064327,72.82516744088244,Lounge,12478447,https://en.wikipedia.org/wiki/Mumbai,18.975,72.825833333333
475,Mumbai,India,Gadda Da Vida,4b0587cff964a5209da222e3,19.108636395191915,72.82393576378033,Bar,12478447,https://en.wikipedia.org/wiki/Mumbai,18.975,72.825833333333
476,Mumbai,India,PizzaExpress Colaba,50caded2e4b06f07c9b15053,18.923899084049445,72.83345215349688,Pizza Place,12478447,https://en.wikipedia.org/wiki/Mumbai,18.975,72.825833333333
477,Mumbai,India,Peshawari,4b0587dbf964a52069a422e3,19.10395400387377,72.86987902868673,Indian Restaurant,12478447,https://en.wikipedia.org/wiki/Mumbai,18.975,72.825833333333
478,Mumbai,India,Home Chef,4b6fc260f964a520c2fb2ce3,19.024238841042585,72.83777459529166,Restaurant,12478447,https://en.wikipedia.org/wiki/Mumbai,18.975,72.825833333333
479,Mumbai,India,Neelam Foodland,4da44e999935a093003cda6f,19.07366345188169,72.83004736158074,Grocery Store,12478447,https://en.wikipedia.org/wiki/Mumbai,18.975,72.825833333333
480,Mumbai,India,Thai Pavilion,4b0587d6f964a520b2a322e3,18.914246393461482,72.82108040339331,Thai Restaurant,12478447,https://en.wikipedia.org/wiki/Mumbai,18.975,72.825833333333
481,Mumbai,India,Pali Bhavan,50c60336e4b0e2b40dbed48b,19.06208863111207,72.8294592044777,Indian Restaurant,12478447,https://en.wikipedia.org/wiki/Mumbai,18.975,72.825833333333
482,Lagos,Nigeria,Yello Chilli,4be451dc2457a593820eaa15,6.424972182934475,3.4152107936063865,African Restaurant,16060303,https://en.wikipedia.org/wiki/Lagos,6.455027,3.384082
483,Lagos,Nigeria,Crust & Cream,543155d4498e648f00ac0c38,6.432538760854469,3.4166896463204277,Breakfast Spot,16060303,https://en.wikipedia.org/wiki/Lagos,6.455027,3.384082
484,Lagos,Nigeria,Freedom Park,4fa3a928e4b01208f9529e8e,6.449065067109614,3.396536383249523,Park,16060303,https://en.wikipedia.org/wiki/Lagos,6.455027,3.384082
485,Lagos,Nigeria,The Londoners Bar & Restaurant,4da4afbcb1c9370496db15a2,6.573301418594244,3.357091788391549,Bar,16060303,https://en.wikipedia.org/wiki/Lagos,6.455027,3.384082
486,Lagos,Nigeria,Hans & René,556b4c01498e7fd1525edbab,6.436521550578695,3.416506506247353,Ice Cream Shop,16060303,https://en.wikipedia.org/wiki/Lagos,6.455027,3.384082
487,Lagos,Nigeria,CKDigital,51e4a11c498ed6f7bfaff09f,6.5405898694674915,3.3685517953053443,IT Services,16060303,https://en.wikipedia.org/wiki/Lagos,6.455027,3.384082
488,Lagos,Nigeria,Glover Court,4f886c13e4b05ae887e73bae,6.4521709167465415,3.435491102044384,Lounge,16060303,https://en.wikipedia.org/wiki/Lagos,6.455027,3.384082
489,Lagos,Nigeria,xovar lounge,51b2667f498e624e770cfe6a,6.435632799631746,3.493165495635867,Lounge,16060303,https://en.wikipedia.org/wiki/Lagos,6.455027,3.384082
490,Lagos,Nigeria,Radisson Blu Anchorage Hotel,4d9325d3b32737042aad9125,6.436811719299866,3.4172041654919667,Hotel,16060303,https://en.wikipedia.org/wiki/Lagos,6.455027,3.384082
491,Lagos,Nigeria,New Afrika Shrine,515eecc5e4b04e50b0bac6eb,6.622918206279308,3.356945514678955,Performing Arts Venue,16060303,https://en.wikipedia.org/wiki/Lagos,6.455027,3.384082
492,Lagos,Nigeria,Bay Lounge,53c425ad498e3dd883606246,6.453833906665154,3.469335930079256,Lounge,16060303,https://en.wikipedia.org/wiki/Lagos,6.455027,3.384082
493,Lagos,Nigeria,Filmhouse Imax,57d1a57e498e02fa25dbe90b,6.4393130976162,3.4711778497175296,Movie Theater,16060303,https://en.wikipedia.org/wiki/Lagos,6.455027,3.384082
494,Lagos,Nigeria,Angle Villa,54a6fcef498e43a77f7b7642,6.447507632701631,3.4575652218966684,Hotel,16060303,https://en.wikipedia.org/wiki/Lagos,6.455027,3.384082
495,Lagos,Nigeria,Cafe Neo at fourteen36,56ab7d27498e3b4bd008d6b2,6.431199789000759,3.426356189517245,Café,16060303,https://en.wikipedia.org/wiki/Lagos,6.455027,3.384082
496,Lagos,Nigeria,Johnny Rockets,50c9e480e4b0d44e4818c5b3,6.423335407246792,3.4274929353960415,Burger Joint,16060303,https://en.wikipedia.org/wiki/Lagos,6.455027,3.384082
497,Lagos,Nigeria,SpicyInc Studio,4fbd1a457716f968e28e0cf2,6.4510688654230695,3.3981245831169717,Photography Studio,16060303,https://en.wikipedia.org/wiki/Lagos,6.455027,3.384082
498,Lagos,Nigeria,V.G.C. Park,4d7234f6f7c38cfa5aa0a23d,6.465123409375906,3.5511159896850586,Playground,16060303,https://en.wikipedia.org/wiki/Lagos,6.455027,3.384082
499,Lagos,Nigeria,Sakura Japanese Restaurant,5480a8c4498ea00f2964166f,6.427309219722259,3.4122185442360204,Japanese Restaurant,16060303,https://en.wikipedia.org/wiki/Lagos,6.455027,3.384082
500,Lagos,Nigeria,la mango,4fc8b754e4b0f2cf9e187b4b,6.573643209540345,3.3606681081178524,Lounge,16060303,https://en.wikipedia.org/wiki/Lagos,6.455027,3.384082
501,Lagos,Nigeria,White House,4d344e1098336dcb474236f0,6.50614331564447,3.375521701748339,African Restaurant,16060303,https://en.wikipedia.org/wiki/Lagos,6.455027,3.384082
502,Lagos,Nigeria,De Prince Supermarket,4fce4c1ae4b0d4988249ad4a,6.554255231369863,3.388932714342423,Department Store,16060303,https://en.wikipedia.org/wiki/Lagos,6.455027,3.384082
503,Lagos,Nigeria,Casper & Gambini's,5683d5b3498eecea1d51be8e,6.429813176852824,3.41866790062982,Modern European Restaurant,16060303,https://en.wikipedia.org/wiki/Lagos,6.455027,3.384082
504,Lagos,Nigeria,The homestores (Art Cafe),530c7fc4498ee69cc24966f5,6.431375469458717,3.420335905759083,Art Gallery,16060303,https://en.wikipedia.org/wiki/Lagos,6.455027,3.384082
505,Lagos,Nigeria,Cold Stone Creamery,5137173bc84caefc3c5b2b38,6.435960499547026,3.4511852689098776,Ice Cream Shop,16060303,https://en.wikipedia.org/wiki/Lagos,6.455027,3.384082
506,Lagos,Nigeria,KFC Ilupeju,50605618e4b010db7403ba92,6.545577937114818,3.3595798202879514,Fast Food Restaurant,16060303,https://en.wikipedia.org/wiki/Lagos,6.455027,3.384082
507,Lagos,Nigeria,Domino Pizza,506c8746e4b0916d139092dc,6.447737515439222,3.4728820362424853,Pizza Place,16060303,https://en.wikipedia.org/wiki/Lagos,6.455027,3.384082
508,Lagos,Nigeria,Mr. Price,504248e9e4b0f7ca2c66f37c,6.614547918104211,3.357747870274426,Clothing Store,16060303,https://en.wikipedia.org/wiki/Lagos,6.455027,3.384082
509,Lagos,Nigeria,Bogobiri,4d150c958312236af96c4fba,6.443432105217342,3.4243113045532594,Art Gallery,16060303,https://en.wikipedia.org/wiki/Lagos,6.455027,3.384082
510,Lagos,Nigeria,Bottles,4c8968931eafb1f736507135,6.426929195168185,3.4268621606383887,Mexican Restaurant,16060303,https://en.wikipedia.org/wiki/Lagos,6.455027,3.384082
511,Lagos,Nigeria,Maroccaine,4fe629b4e4b04d88c63ab0e9,6.4260985339475765,3.4395517017385613,African Restaurant,16060303,https://en.wikipedia.org/wiki/Lagos,6.455027,3.384082
512,Lagos,Nigeria,355 Restaurant & Lounge,52d0759f498e2a73b7ab5ef7,6.428589199261903,3.4284682394567114,Lounge,16060303,https://en.wikipedia.org/wiki/Lagos,6.455027,3.384082
513,Lagos,Nigeria,Cakes and Cream,4e903b55d22dccc37eac32c3,6.511558875429539,3.352503776550293,Cupcake Shop,16060303,https://en.wikipedia.org/wiki/Lagos,6.455027,3.384082
514,Lagos,Nigeria,Prince Ebeano supermarket (new),5048bffae4b09eed3bad2446,6.447415403081147,3.470508813252145,Supermarket,16060303,https://en.wikipedia.org/wiki/Lagos,6.455027,3.384082
515,Lagos,Nigeria,Ikoyi Club Gym,52204d5011d21533b58e966d,6.4512371870768535,3.4283776694930927,Gym / Fitness Center,16060303,https://en.wikipedia.org/wiki/Lagos,6.455027,3.384082
516,Lagos,Nigeria,Silverbird Cinemas,50cdb759e4b05e3efdd6868a,6.614158550379531,3.357998709991425,Movie Theater,16060303,https://en.wikipedia.org/wiki/Lagos,6.455027,3.384082
517,Lagos,Nigeria,Bukka Hut,4e49b55baeb7de71b38e5ae6,6.44762827432926,3.4752963892610635,African Restaurant,16060303,https://en.wikipedia.org/wiki/Lagos,6.455027,3.384082
518,Lagos,Nigeria,Orchid Bistro,4c34c6a4213c2d7f3c0f395d,6.585112701838615,3.3569866139498568,Café,16060303,https://en.wikipedia.org/wiki/Lagos,6.455027,3.384082
519,Lagos,Nigeria,The Place,4de210257d8b2547eafb0e8b,6.584292910202273,3.356950697538539,African Restaurant,16060303,https://en.wikipedia.org/wiki/Lagos,6.455027,3.384082
520,Lagos,Nigeria,HUB MART,56d8398b498e3d88a6a55ff9,6.430772234975522,3.4172138338181557,Market,16060303,https://en.wikipedia.org/wiki/Lagos,6.455027,3.384082
521,Lagos,Nigeria,Ozone Cinemas,4de68e0418389f05587cbc03,6.506480160984302,3.3745211615751556,Movie Theater,16060303,https://en.wikipedia.org/wiki/Lagos,6.455027,3.384082
522,Lagos,Nigeria,Yellow Chilli,4f78ae22e4b0f52dba4a8b5a,6.585070936459806,3.352313624588865,African Restaurant,16060303,https://en.wikipedia.org/wiki/Lagos,6.455027,3.384082
523,Lagos,Nigeria,Ikoyi Club Squash Section,51fe90bbe4b0f5f652e482fe,6.4512557646477235,3.4283969993599976,Athletics & Sports,16060303,https://en.wikipedia.org/wiki/Lagos,6.455027,3.384082
524,Lagos,Nigeria,Rhapsody's,508eefbae4b04673b909d8d0,6.6144839996555165,3.3576967608056454,Lounge,16060303,https://en.wikipedia.org/wiki/Lagos,6.455027,3.384082
525,Lagos,Nigeria,The House,5a3fc6064420d839f2bfddde,6.42691,3.432731,Lounge,16060303,https://en.wikipedia.org/wiki/Lagos,6.455027,3.384082
526,Lagos,Nigeria,Pool Golden Tulip,5139ec67e4b06ad169780e29,6.4652548652239545,3.3025544097330877,Pool,16060303,https://en.wikipedia.org/wiki/Lagos,6.455027,3.384082
527,Lagos,Nigeria,Hard Rock Cafe Lagos,56795432498eee62a5d245b4,6.422893557373349,3.444495977863924,Theme Restaurant,16060303,https://en.wikipedia.org/wiki/Lagos,6.455027,3.384082
528,Lagos,Nigeria,Chocolate Royal,4c5186d09426c9282364e873,6.433067720954086,3.4381702354730357,Ice Cream Shop,16060303,https://en.wikipedia.org/wiki/Lagos,6.455027,3.384082
529,Lagos,Nigeria,Debonairs pizza,4c6275ac58810f470c32071e,6.4299532478658605,3.419801547476229,Pizza Place,16060303,https://en.wikipedia.org/wiki/Lagos,6.455027,3.384082
530,Lagos,Nigeria,Filmhouse Cinema,51c46f3d498efee47e5563a5,6.490105202189833,3.357288726417333,Movie Theater,16060303,https://en.wikipedia.org/wiki/Lagos,6.455027,3.384082
531,Lagos,Nigeria,Mega Plaza,4bbf335298f49521c638d263,6.433547024399254,3.4203039857629127,Department Store,16060303,https://en.wikipedia.org/wiki/Lagos,6.455027,3.384082
532,Lagos,Nigeria,Cold Stone Creamery,53f0897a498eec00f0629628,6.440528129855051,3.5160993645580247,Ice Cream Shop,16060303,https://en.wikipedia.org/wiki/Lagos,6.455027,3.384082
533,Lagos,Nigeria,Kamdora Commerce,50d88fd3e4b0a7a660a07974,6.441706043240613,3.4664890786066604,Clothing Store,16060303,https://en.wikipedia.org/wiki/Lagos,6.455027,3.384082
534,Lagos,Nigeria,Zen Garden Chinese Resturant,4cbb0b289552b60c6994dd8b,6.585503755306814,3.3571306377106245,Chinese Restaurant,16060303,https://en.wikipedia.org/wiki/Lagos,6.455027,3.384082
535,Lagos,Nigeria,Film House Cinema,50ccbc9ce4b0d07024dd14f4,6.494863032332768,3.356571760598023,Multiplex,16060303,https://en.wikipedia.org/wiki/Lagos,6.455027,3.384082
536,Lagos,Nigeria,Terra Kulture,4c112e99f1b6a5938d1a7d27,6.425012015381938,3.4269167752252847,Restaurant,16060303,https://en.wikipedia.org/wiki/Lagos,6.455027,3.384082
537,Lagos,Nigeria,Ikoyi Club Golf Course,4c666d10ebfcb71340e51027,6.451179929905,3.4271978340470066,Golf Course,16060303,https://en.wikipedia.org/wiki/Lagos,6.455027,3.384082
538,Lagos,Nigeria,Kfc palms,4d075c42c2e53704d2b3c867,6.435889050726746,3.4510631866604724,Fried Chicken Joint,16060303,https://en.wikipedia.org/wiki/Lagos,6.455027,3.384082
539,Lagos,Nigeria,Cakes N Cream,50164f1de4b06fc7cff2c822,6.585498695732971,3.3646931486865346,Bakery,16060303,https://en.wikipedia.org/wiki/Lagos,6.455027,3.384082
540,Lagos,Nigeria,Bar Beach,4c77bcd007818cfa4152d5e3,6.422849189472533,3.4243495662949317,Beach,16060303,https://en.wikipedia.org/wiki/Lagos,6.455027,3.384082
541,Lagos,Nigeria,Pizze-riah Wood-fired pizza,4f805d88e4b05766b1888536,6.432328036081288,3.4168961713664148,Pizza Place,16060303,https://en.wikipedia.org/wiki/Lagos,6.455027,3.384082
542,Lagos,Nigeria,Friends Colony Estate,4c9242b457e5b60c1776671c,6.450275018284576,3.517332476544959,Bar,16060303,https://en.wikipedia.org/wiki/Lagos,6.455027,3.384082
543,Lagos,Nigeria,The Place,5621a81e498eeefe0bc252eb,6.429952159855158,3.4099230832660514,Lounge,16060303,https://en.wikipedia.org/wiki/Lagos,6.455027,3.384082
544,Lagos,Nigeria,Apapa Shopping Mall,5505878c498eb6579786bfd7,6.447550864812469,3.365189013677541,Shopping Mall,16060303,https://en.wikipedia.org/wiki/Lagos,6.455027,3.384082
545,Lagos,Nigeria,Village Lounge,4e7de58dd3e3294a67c5b155,6.565680369484428,3.3716828178015827,Bar,16060303,https://en.wikipedia.org/wiki/Lagos,6.455027,3.384082
546,Lagos,Nigeria,Casa D'Lydia,4e29d32b14955dbf7ac8aefd,6.45516119330092,3.4291700351130374,Diner,16060303,https://en.wikipedia.org/wiki/Lagos,6.455027,3.384082
547,Lagos,Nigeria,The Palms,4ca87520d971b1f76b8b14e1,6.436146544337211,3.4511363449732753,Shopping Mall,16060303,https://en.wikipedia.org/wiki/Lagos,6.455027,3.384082
548,Lagos,Nigeria,Crossroads,55fb140d498eb46117541a06,6.426632671849795,3.430207003985175,Mexican Restaurant,16060303,https://en.wikipedia.org/wiki/Lagos,6.455027,3.384082
549,Lagos,Nigeria,Heineken Lounge,5432d5a0498ec001c66d0d22,6.579011147338309,3.3214689867310163,Lounge,16060303,https://en.wikipedia.org/wiki/Lagos,6.455027,3.384082
550,Lagos,Nigeria,Ice Cream Factory,524ae9ad11d210a897603b91,6.444426967652713,3.455228008253786,Ice Cream Shop,16060303,https://en.wikipedia.org/wiki/Lagos,6.455027,3.384082
551,Lagos,Nigeria,Elegushi Beach,4c83d95ad34ca143f3103980,6.429948557048362,3.486698949291008,Surf Spot,16060303,https://en.wikipedia.org/wiki/Lagos,6.455027,3.384082
